Company ID,Industry ID,Industry Name,Company Name,Address 1,City,State,Zip,Listing Type,Country,Phone,Parent_ID,Parent Name,Parent City,Parent State,Parent Zip,Headquarters ID,HQ Name,HQ City,HQ State,HQ Zip,Store No,Store Weekly Volume,FIPS,FIPS_DESC,CBSA,CBSA_DESC,MSA,MSA_DESC,PMSA,PMSA_DESC,Lat,Lon,GeoLevel,MatchStatus,Score,Drive-Thru Window,Wi-Fi
1000927718,51,Locations: Chain Restaurants,McDonald's,1 Herman CR,HOUSTON,TX,77030,Location,United States of America,7136394699.0,1000017996,McDonald's Corporation,CHICAGO,IL,60607,,,,,,,55710.0,48201.0,HARRIS,26420.0,"Houston-The Woodlands-Sugar Land, TX",3362.0,"HOUSTON-GALVESTON-BRAZORIA, TX",3360.0,"HOUSTON, TX",29.7220973,-95.3897965,Approximate,,,Drive-Thru Window,Wi-Fi
1000927902,51,Locations: Chain Restaurants,McDonald's,10 South 710 Rt 83,WILLOWBROOK,IL,60527,Location,United States of America,6303237308.0,1000017996,McDonald's Corporation,CHICAGO,IL,60607,,,,,,,52040.0,17043.0,DUPAGE,16980.0,"Chicago-Naperville-Elgin, IL-IN-WI",1602.0,"CHICAGO-GARY-KENOSHA, IL-IN-WI",1600.0,"CHICAGO, IL",41.7174419,-87.9454945,Approximate,,,Drive-Thru Window,Wi-Fi
1000928135,51,Locations: Chain Restaurants,McDonald's,100 Walmart Dr,ELIZABETHTOWN,KY,42701-5548,Location,United States of America,2707630064.0,1000017996,McDonald's Corporation,CHICAGO,IL,60607,,,,,,,49300.0,21093.0,HARDIN,21060.0,"Elizabethtown-Fort Knox, KY",,,,,37.732621,-85.88237600000001,Approximate,,,Drive-Thru Window,Wi-Fi
1000928896,51,Locations: Chain Restaurants,McDonald's,10201 Belle Plaine Ave,SCHILLER PARK,IL,60176-1875,Location,United States of America,8476781978.0,1000017996,McDonald's Corporation,CHICAGO,IL,60607,,,,,,,51270.0,17031.0,COOK,16980.0,"Chicago-Naperville-Elgin, IL-IN-WI",1602.0,"CHICAGO-GARY-KENOSHA, IL-IN-WI",1600.0,"CHICAGO, IL",41.950495000000004,-87.882887,Approximate,,,Drive-Thru Window,Wi-Fi
1000929359,51,Locations: Chain Restaurants,McDonald's,1049 Old Durham Rd,ROXBORO,NC,27573,Location,United States of America,3365979237.0,1000017996,McDonald's Corporation,CHICAGO,IL,60607,,,,,,,47950.0,37145.0,PERSON,20500.0,"Durham-Chapel Hill, NC",,,,,36.376843900000004,-78.98486740000001,Approximate,,,Drive-Thru Window,Wi-Fi
1000929659,51,Locations: Chain Restaurants,McDonald's,10655 Folsom Blvd,RANCHO CORDOVA,CA,95670-4828,Location,United States of America,9163610285.0,1000017996,McDonald's Corporation,CHICAGO,IL,60607,,,,,,,51070.0,6067.0,SACRAMENTO,40900.0,"Sacramento-Roseville-Arden-Arcade, CA",6922.0,"SACRAMENTO-YOLO, CA",6920.0,"SACRAMENTO, CA",38.59614929999999,-121.29179840000002,Approximate,,,Drive-Thru Window,Wi-Fi
1000929814,51,Locations: Chain Restaurants,McDonald's,10771 Gulf Blvd,TREASURE ISLAND,FL,33706-4705,Location,United States of America,7273606110.0,1000017996,McDonald's Corporation,CHICAGO,IL,60607,,,,,,,51010.0,12103.0,PINELLAS,45300.0,"Tampa-St. Petersburg-Clearwater, FL",8280.0,"TAMPA-SAINT PETERSBURG-CLEARWATER, FL",,,27.769976,-82.769334,Approximate,,,Drive-Thru Window,Wi-Fi
1000930050,51,Locations: Chain Restaurants,McDonald's,1095 Industrial Pkwy,SARALAND,AL,36571-3719,Location,United States of America,2516755199.0,1000017996,McDonald's Corporation,CHICAGO,IL,60607,,,,,,,48210.0,1097.0,MOBILE,33660.0,"Mobile, AL",5160.0,"MOBILE, AL",,,30.799387199999998,-88.0970932,Approximate,,,Drive-Thru Window,Wi-Fi
1000930637,51,Locations: Chain Restaurants,McDonald's,1111 S Figueroa St,LOS ANGELES,CA,90015-1300,Location,United States of America,2137427463.0,1000017996,McDonald's Corporation,CHICAGO,IL,60607,,,,,,,62700.0,6037.0,LOS ANGELES,31080.0,"Los Angeles-Long Beach-Anaheim, CA",4472.0,"LOS ANGELES-RIVERSIDE-ORANGE COUNTY, CA",4480.0,"LOS ANGELES-LONG BEACH, CA",34.043088700000006,-118.26641809999998,Approximate,,,Drive-Thru Window,Wi-Fi
1000931590,51,Locations: Chain Restaurants,McDonald's,11820 Abrams Rd,DALLAS,TX,75243-4502,Location,United States of America,9726904679.0,1000017996,McDonald's Corporation,CHICAGO,IL,60607,,,,,,,58630.0,48113.0,DALLAS,19100.0,"Dallas-Fort Worth-Arlington, TX",1922.0,"DALLAS-FORT WORTH, TX",1920.0,"DALLAS, TX",32.910021,-96.73508100000001,Approximate,,,Drive-Thru Window,Wi-Fi
1000931417,51,Locations: Chain Restaurants,McDonald's,1169 W El Camino Real,SUNNYVALE,CA,94087-1026,Location,United States of America,4082457640.0,1000017996,McDonald's Corporation,CHICAGO,IL,60607,,,,,,,60930.0,6085.0,SANTA CLARA,41940.0,"San Jose-Sunnyvale-Santa Clara, CA",7362.0,"SAN FRANCISCO-OAKLAND-SAN JOSE, CA",7400.0,"SAN JOSE, CA",37.373862,-122.05483000000001,Approximate,,,Drive-Thru Window,Wi-Fi
1000931835,51,Locations: Chain Restaurants,McDonald's,120 Terrace Ave,COLDWATER,OH,45828-1517,Location,United States of America,4196781124.0,1000017996,McDonald's Corporation,CHICAGO,IL,60607,,,,,,,48230.0,39107.0,MERCER,16380.0,"Celina, OH",,,,,40.480618,-84.61954490000001,Approximate,,,Drive-Thru Window,Wi-Fi
1000931975,51,Locations: Chain Restaurants,McDonald's,1201 Morgantown Rd,BOWLING GREEN,KY,42101-9202,Location,United States of America,2708423156.0,1000017996,McDonald's Corporation,CHICAGO,IL,60607,,,,,,,49050.0,21227.0,WARREN,14540.0,"Bowling Green, KY",,,,,36.986792,-86.483954,Approximate,,,Drive-Thru Window,Wi-Fi
1000933171,51,Locations: Chain Restaurants,McDonald's,12850 L St,OMAHA,NE,68137-2078,Location,United States of America,4023336175.0,1000017996,McDonald's Corporation,CHICAGO,IL,60607,,,,,,,50430.0,31055.0,DOUGLAS,36540.0,"Omaha-Council Bluffs, NE-IA",5920.0,"OMAHA, NE-IA",,,41.214732,-96.11381109999999,Approximate,,,Drive-Thru Window,Wi-Fi
1000933896,51,Locations: Chain Restaurants,McDonald's,13310 Telegraph Rd,SANTA FE SPRINGS,CA,90670-4016,Location,United States of America,5629413083.0,1000017996,McDonald's Corporation,CHICAGO,IL,60607,,,,,,,54640.0,6037.0,LOS ANGELES,31080.0,"Los Angeles-Long Beach-Anaheim, CA",4472.0,"LOS ANGELES-RIVERSIDE-ORANGE COUNTY, CA",4480.0,"LOS ANGELES-LONG BEACH, CA",33.940259499999996,-118.0494701,Approximate,,,Drive-Thru Window,Wi-Fi
1000934976,51,Locations: Chain Restaurants,McDonald's,14215 FM 2100 Rd,CROSBY,TX,77532-9152,Location,United States of America,2814628303.0,1000017996,McDonald's Corporation,CHICAGO,IL,60607,,,,,,,48530.0,48201.0,HARRIS,26420.0,"Houston-The Woodlands-Sugar Land, TX",3362.0,"HOUSTON-GALVESTON-BRAZORIA, TX",3360.0,"HOUSTON, TX",29.8943524,-95.065638,Approximate,,,Drive-Thru Window,Wi-Fi
1000935303,51,Locations: Chain Restaurants,McDonald's,1450 Ala Moana Blvd,HONOLULU,HI,96814-4608,Location,United States of America,8089732351.0,1000017996,McDonald's Corporation,CHICAGO,IL,60607,,,,,,,52930.0,15003.0,HONOLULU,46520.0,"Urban Honolulu, HI",3320.0,"HONOLULU, HI",,,21.2913437,-157.8436875,Approximate,,,Drive-Thru Window,Wi-Fi
1000935202,51,Locations: Chain Restaurants,McDonald's,14401 Northern Blvd,FLUSHING,NY,11354-4230,Location,United States of America,7183582416.0,1000017996,McDonald's Corporation,CHICAGO,IL,60607,,,,,,,60870.0,36081.0,QUEENS,35620.0,"New York-Newark-Jersey City, NY-NJ-PA",5602.0,"NEW YORK-NORTHERN NEW JERSEY-LONG ISLAND, NY-NJ-CT-PA",5600.0,"NEW YORK, NY",40.764922999999996,-73.823349,Approximate,,,Drive-Thru Window,Wi-Fi
1000936077,51,Locations: Chain Restaurants,McDonald's,1511 Benevue Rd,ROCKY MOUNT,NC,27804,Location,United States of America,2524420438.0,1000017996,McDonald's Corporation,CHICAGO,IL,60607,,,,,,,48880.0,37127.0,NASH,40580.0,"Rocky Mount, NC",6895.0,"ROCKY MOUNT, NC",,,35.977954100000005,-77.8123426,Approximate,,,Drive-Thru Window,Wi-Fi
1000936571,51,Locations: Chain Restaurants,McDonald's,1560 Broadway,NEW YORK,NY,10036-1537,Location,United States of America,2129218900.0,1000017996,McDonald's Corporation,CHICAGO,IL,60607,,,,,,,68360.0,36061.0,NEW YORK,35620.0,"New York-Newark-Jersey City, NY-NJ-PA",5602.0,"NEW YORK-NORTHERN NEW JERSEY-LONG ISLAND, NY-NJ-CT-PA",5600.0,"NEW YORK, NY",40.758728000000005,-73.984779,Approximate,,,Drive-Thru Window,Wi-Fi
1000936933,51,Locations: Chain Restaurants,McDonald's,1600 S Azusa Ave,CITY OF INDUSTRY,CA,91748-1697,Location,United States of America,6268102667.0,1000017996,McDonald's Corporation,CHICAGO,IL,60607,,,,,,,52700.0,6037.0,LOS ANGELES,31080.0,"Los Angeles-Long Beach-Anaheim, CA",4472.0,"LOS ANGELES-RIVERSIDE-ORANGE COUNTY, CA",4480.0,"LOS ANGELES-LONG BEACH, CA",33.994505,-117.926608,Approximate,,,Drive-Thru Window,Wi-Fi
1000938745,51,Locations: Chain Restaurants,McDonald's,1798 Old Stage Rd,DECORAH,IA,52101-7497,Location,United States of America,5633826384.0,1000017996,McDonald's Corporation,CHICAGO,IL,60607,,,,,,,48550.0,19191.0,WINNESHIEK,,,,,,,43.291818299999996,-91.7545761,Approximate,,,Drive-Thru Window,Wi-Fi
1000938417,51,Locations: Chain Restaurants,McDonald's,1744 Pj Keller Hwy,LEXINGTON,IL,61753-9761,Location,United States of America,3093658833.0,1000017996,McDonald's Corporation,CHICAGO,IL,60607,,,,,,,48550.0,17113.0,MCLEAN,14010.0,"Bloomington, IL",1040.0,"BLOOMINGTON-NORMAL, IL",,,40.643678,-88.8048448,Approximate,,,Drive-Thru Window,Wi-Fi
1000939160,51,Locations: Chain Restaurants,McDonald's,1830 Galleria Blvd,CHARLOTTE,NC,28270,Location,United States of America,7043212333.0,1000017996,McDonald's Corporation,CHICAGO,IL,60607,,,,,,,49580.0,37119.0,MECKLENBURG,16740.0,"Charlotte-Concord-Gastonia, NC-SC",1520.0,"CHARLOTTE-GASTONIA-ROCK HILL, NC-SC",,,35.138664,-80.731831,Approximate,,,Drive-Thru Window,Wi-Fi
1000938685,51,Locations: Chain Restaurants,McDonald's,1785 Cobb Pkwy S,MARIETTA,GA,30060-9288,Location,United States of America,7709801194.0,1000017996,McDonald's Corporation,CHICAGO,IL,60607,,,,,,,50800.0,13067.0,COBB,12060.0,"Atlanta-Sandy Springs-Roswell, GA",520.0,"ATLANTA, GA",,,33.909895,-84.48853100000001,Approximate,,,Drive-Thru Window,Wi-Fi
1000939019,51,Locations: Chain Restaurants,McDonald's,1815 Hawthorne Blvd,REDONDO BEACH,CA,90278-3420,Location,United States of America,3103716653.0,1000017996,McDonald's Corporation,CHICAGO,IL,60607,,,,,,,57640.0,6037.0,LOS ANGELES,31080.0,"Los Angeles-Long Beach-Anaheim, CA",4472.0,"LOS ANGELES-RIVERSIDE-ORANGE COUNTY, CA",4480.0,"LOS ANGELES-LONG BEACH, CA",33.8713527,-118.3549994,Approximate,,,Drive-Thru Window,Wi-Fi
1000940328,51,Locations: Chain Restaurants,McDonald's,1990 El Camino Real,SANTA CLARA,CA,95050-4161,Location,United States of America,4082440281.0,1000017996,McDonald's Corporation,CHICAGO,IL,60607,,,,,,,56700.0,6085.0,SANTA CLARA,41940.0,"San Jose-Sunnyvale-Santa Clara, CA",7362.0,"SAN FRANCISCO-OAKLAND-SAN JOSE, CA",7400.0,"SAN JOSE, CA",37.3520598,-121.95860220000002,Approximate,,,Drive-Thru Window,Wi-Fi
1000940699,51,Locations: Chain Restaurants,McDonald's,2000 W Memorial Rd,OKLAHOMA CITY,OK,73134-6506,Location,United States of America,4059360050.0,1000017996,McDonald's Corporation,CHICAGO,IL,60607,,,,,,,51240.0,40109.0,OKLAHOMA,36420.0,"Oklahoma City, OK",5880.0,"OKLAHOMA CITY, OK",,,35.6056974,-97.54626590000001,Approximate,,,Drive-Thru Window,Wi-Fi
1000940953,51,Locations: Chain Restaurants,McDonald's,2010 Value Dr,TARENTUM,PA,15084,Location,United States of America,7242740531.0,1000017996,McDonald's Corporation,CHICAGO,IL,60607,,,,,,,48230.0,42003.0,ALLEGHENY,38300.0,"Pittsburgh, PA",6280.0,"PITTSBURGH, PA",,,40.564096899999996,-79.804128,Approximate,,,Drive-Thru Window,Wi-Fi
1000940981,51,Locations: Chain Restaurants,McDonald's,20131 Highway 59 N,HUMBLE,TX,77338-2351,Location,United States of America,2815407403.0,1000017996,McDonald's Corporation,CHICAGO,IL,60607,,,,,,,48520.0,48201.0,HARRIS,26420.0,"Houston-The Woodlands-Sugar Land, TX",3362.0,"HOUSTON-GALVESTON-BRAZORIA, TX",3360.0,"HOUSTON, TX",30.009475800000004,-95.2703369,Approximate,,,Drive-Thru Window,Wi-Fi
1000940985,51,Locations: Chain Restaurants,McDonald's,2014 S Irby St,FLORENCE,SC,29505-3420,Location,United States of America,8436623545.0,1000017996,McDonald's Corporation,CHICAGO,IL,60607,,,,,,,48890.0,45041.0,FLORENCE,22500.0,"Florence, SC",2655.0,"FLORENCE, SC",,,34.155265,-79.76411800000001,Approximate,,,Drive-Thru Window,Wi-Fi
1000939519,51,Locations: Chain Restaurants,McDonald's,18550 Willamette Dr,WEST LINN,OR,97068,Location,United States of America,5036997675.0,1000017996,McDonald's Corporation,CHICAGO,IL,60607,,,,,,,51960.0,41005.0,CLACKAMAS,38900.0,"Portland-Vancouver-Hillsboro, OR-WA",6442.0,"PORTLAND-SALEM, OR-WA",6440.0,"PORTLAND-VANCOUVER, OR-WA",45.3898988,-122.64369740000002,Approximate,,,Drive-Thru Window,Wi-Fi
1000941464,51,Locations: Chain Restaurants,McDonald's,207 S Edwards Blvd,LAKE GENEVA,WI,53147,Location,United States of America,2622490268.0,1000017996,McDonald's Corporation,CHICAGO,IL,60607,,,,,,,48630.0,55127.0,WALWORTH,48580.0,"Whitewater-Elkhorn, WI",,,,,42.5911433,-88.4114778,Approximate,,,Drive-Thru Window,Wi-Fi
1000939660,51,Locations: Chain Restaurants,McDonald's,1900 Shorrock St,LAKEWOOD,NJ,08701-7324,Location,United States of America,7329205409.0,1000017996,McDonald's Corporation,CHICAGO,IL,60607,,,,,,,51560.0,34029.0,OCEAN,35620.0,"New York-Newark-Jersey City, NY-NJ-PA",5602.0,"NEW YORK-NORTHERN NEW JERSEY-LONG ISLAND, NY-NJ-CT-PA",5190.0,"MONMOUTH-OCEAN, NJ",40.054674,-74.163657,Approximate,,,Drive-Thru Window,Wi-Fi
1000941893,51,Locations: Chain Restaurants,McDonald's,2109 Smizer Station Rd,VALLEY PARK,MO,63088-2200,Location,United States of America,6362255665.0,1000017996,McDonald's Corporation,CHICAGO,IL,60607,,,,,,,51230.0,29189.0,SAINT LOUIS,41180.0,"St. Louis, MO-IL",7040.0,"SAINT LOUIS, MO-IL",,,38.537803100000005,-90.4943843,Approximate,,,Drive-Thru Window,Wi-Fi
1000942527,51,Locations: Chain Restaurants,McDonald's,220 N 35th Ave,PHOENIX,AZ,85009-4726,Location,United States of America,6022725723.0,1000017996,McDonald's Corporation,CHICAGO,IL,60607,,,,,,,54910.0,4013.0,MARICOPA,38060.0,"Phoenix-Mesa-Scottsdale, AZ",6200.0,"PHOENIX-MESA, AZ",,,33.4510103,-112.1349956,Approximate,,,Drive-Thru Window,Wi-Fi
1000941138,51,Locations: Chain Restaurants,McDonald's,2028 N Center Ave,SOMERSET,PA,15501-7436,Location,United States of America,8144456347.0,1000017996,McDonald's Corporation,CHICAGO,IL,60607,,,,,,,48490.0,42111.0,SOMERSET,43740.0,"Somerset, PA",3680.0,"JOHNSTOWN, PA",,,40.052096,-79.0706405,Approximate,,,Drive-Thru Window,Wi-Fi
1000942337,51,Locations: Chain Restaurants,McDonald's,2164 Bayport Blvd,SEABROOK,TX,77586-2811,Location,United States of America,2814743494.0,1000017996,McDonald's Corporation,CHICAGO,IL,60607,,,,,,,51210.0,48201.0,HARRIS,26420.0,"Houston-The Woodlands-Sugar Land, TX",3362.0,"HOUSTON-GALVESTON-BRAZORIA, TX",3360.0,"HOUSTON, TX",29.5720387,-95.0267468,Approximate,,,Drive-Thru Window,Wi-Fi
1000942513,51,Locations: Chain Restaurants,McDonald's,220 Century Blvd,BRISTOL,TN,37620-6721,Location,United States of America,4236522150.0,1000017996,McDonald's Corporation,CHICAGO,IL,60607,,,,,,,48320.0,47163.0,SULLIVAN,28700.0,"Kingsport-Bristol-Bristol, TN-VA",3660.0,"JOHNSON CITY-KINGSPORT-BRISTOL, TN-VA",,,36.545369,-82.235102,Approximate,,,Drive-Thru Window,Wi-Fi
1000942905,51,Locations: Chain Restaurants,McDonald's,223 N Myrtle School Rd,GASTONIA,NC,28052-1257,Location,United States of America,7048610220.0,1000017996,McDonald's Corporation,CHICAGO,IL,60607,,,,,,,48410.0,37071.0,GASTON,16740.0,"Charlotte-Concord-Gastonia, NC-SC",1520.0,"CHARLOTTE-GASTONIA-ROCK HILL, NC-SC",,,35.2609081,-81.2265075,Approximate,,,Drive-Thru Window,Wi-Fi
1000944936,51,Locations: Chain Restaurants,McDonald's,2544 Anderson Hwy,POWHATAN,VA,23139-7507,Location,United States of America,8045986289.0,1000017996,McDonald's Corporation,CHICAGO,IL,60607,,,,,,,49110.0,51145.0,POWHATAN,40060.0,"Richmond, VA",6760.0,"RICHMOND-PETERSBURG, VA",,,37.5231013,-77.8226146,Approximate,,,Drive-Thru Window,Wi-Fi
1000945892,51,Locations: Chain Restaurants,McDonald's,2717 Highway 54,PEACHTREE CITY,GA,30269-1031,Location,United States of America,6783646640.0,1000017996,McDonald's Corporation,CHICAGO,IL,60607,,,,,,,49580.0,13113.0,FAYETTE,12060.0,"Atlanta-Sandy Springs-Roswell, GA",520.0,"ATLANTA, GA",,,33.401234,-84.599971,Approximate,,,Drive-Thru Window,Wi-Fi
1000943953,51,Locations: Chain Restaurants,McDonald's,2400 N Lincoln Ave,CHICAGO,IL,60614-2415,Location,United States of America,7733883621.0,1000017996,McDonald's Corporation,CHICAGO,IL,60607,,,,,,,59300.0,17031.0,COOK,16980.0,"Chicago-Naperville-Elgin, IL-IN-WI",1602.0,"CHICAGO-GARY-KENOSHA, IL-IN-WI",1600.0,"CHICAGO, IL",41.925619,-87.64925500000001,Approximate,,,Drive-Thru Window,Wi-Fi
1000946566,51,Locations: Chain Restaurants,McDonald's,2840 Highway 95,BULLHEAD CITY,AZ,86442-7792,Location,United States of America,9287638222.0,1000017996,McDonald's Corporation,CHICAGO,IL,60607,,,,,,,48600.0,4015.0,MOHAVE,29420.0,"Lake Havasu City-Kingman, AZ",4120.0,"LAS VEGAS, NV-AZ",,,35.0819214,-114.59437820000001,Approximate,,,Drive-Thru Window,Wi-Fi
1000946836,51,Locations: Chain Restaurants,McDonald's,2901 SW 9th St,DES MOINES,IA,50315-2202,Location,United States of America,5153093539.0,1000017996,McDonald's Corporation,CHICAGO,IL,60607,,,,,,,51110.0,19153.0,POLK,19780.0,"Des Moines-West Des Moines, IA",2120.0,"DES MOINES, IA",,,41.5587665,-93.62525090000001,Approximate,,,Drive-Thru Window,Wi-Fi
1000945018,51,Locations: Chain Restaurants,McDonald's,25550 Interstate 10,HANKAMER,TX,77514,Location,United States of America,4093742100.0,1000017996,McDonald's Corporation,CHICAGO,IL,60607,,,,,,,48320.0,48071.0,CHAMBERS,26420.0,"Houston-The Woodlands-Sugar Land, TX",3362.0,"HOUSTON-GALVESTON-BRAZORIA, TX",3360.0,"HOUSTON, TX",29.839273499999997,-94.64962009999999,Approximate,,,Drive-Thru Window,Wi-Fi
1000945628,51,Locations: Chain Restaurants,McDonald's,2680 N Roberts Ave,LUMBERTON,NC,28358-2860,Location,United States of America,9106744512.0,1000017996,McDonald's Corporation,CHICAGO,IL,60607,,,,,,,48880.0,37155.0,ROBESON,31300.0,"Lumberton, NC",,,,,34.6435093,-79.0098712,Approximate,,,Drive-Thru Window,Wi-Fi
1000946101,51,Locations: Chain Restaurants,McDonald's,2752 MacArthur Rd,WHITEHALL,PA,18052-3631,Location,United States of America,6107768122.0,1000017996,McDonald's Corporation,CHICAGO,IL,60607,,,,,,,51640.0,42077.0,LEHIGH,10900.0,"Allentown-Bethlehem-Easton, PA-NJ",240.0,"ALLENTOWN-BETHLEHEM-EASTON, PA",,,40.646643100000006,-75.49542459999999,Approximate,,,Drive-Thru Window,Wi-Fi
1000946715,51,Locations: Chain Restaurants,McDonald's,2890 W 104th Ave,FEDERAL HEIGHTS,CO,80234-3539,Location,United States of America,7208892291.0,1000017996,McDonald's Corporation,CHICAGO,IL,60607,,,,,,,54700.0,8001.0,ADAMS,19740.0,"Denver-Aurora-Lakewood, CO",2082.0,"DENVER-BOULDER-GREELEY, CO",2080.0,"DENVER, CO",39.8847149,-105.02146609999998,Approximate,,,Drive-Thru Window,Wi-Fi
1000947226,51,Locations: Chain Restaurants,McDonald's,3 W State St,BINGHAMTON,NY,13901-2310,Location,United States of America,6077230222.0,1000017996,McDonald's Corporation,CHICAGO,IL,60607,,,,,,,49900.0,36007.0,BROOME,13780.0,"Binghamton, NY",960.0,"BINGHAMTON, NY",,,42.108345799999995,-75.90757009999999,Approximate,,,Drive-Thru Window,Wi-Fi
1000947275,51,Locations: Chain Restaurants,McDonald's,30 Trinity Point Dr,WASHINGTON,PA,15301-2974,Location,United States of America,7242297500.0,1000017996,McDonald's Corporation,CHICAGO,IL,60607,,,,,,,49250.0,42125.0,WASHINGTON,38300.0,"Pittsburgh, PA",6280.0,"PITTSBURGH, PA",,,40.183006400000004,-80.2209952,Approximate,,,Drive-Thru Window,Wi-Fi
1000947838,51,Locations: Chain Restaurants,McDonald's,3050 E Hwy 69,PRESCOTT,AZ,86301,Location,United States of America,9287170045.0,1000017996,McDonald's Corporation,CHICAGO,IL,60607,,,,,,,48870.0,4025.0,YAVAPAI,39140.0,"Prescott, AZ",,,,,34.55422720000001,-112.40801270000001,Approximate,,,Drive-Thru Window,Wi-Fi
1000948065,51,Locations: Chain Restaurants,McDonald's,310 Governors Dr SW,HUNTSVILLE,AL,35801-5122,Location,United States of America,2565341031.0,1000017996,McDonald's Corporation,CHICAGO,IL,60607,,,,,,,51450.0,1089.0,MADISON,26620.0,"Huntsville, AL",3440.0,"HUNTSVILLE, AL",,,34.7202668,-86.5840177,Approximate,,,Drive-Thru Window,Wi-Fi
1000948536,51,Locations: Chain Restaurants,McDonald's,317 Broadway,NEW YORK,NY,10007-1127,Location,United States of America,2127326407.0,1000017996,McDonald's Corporation,CHICAGO,IL,60607,,,,,,,63090.0,36061.0,NEW YORK,35620.0,"New York-Newark-Jersey City, NY-NJ-PA",5602.0,"NEW YORK-NORTHERN NEW JERSEY-LONG ISLAND, NY-NJ-CT-PA",5600.0,"NEW YORK, NY",40.715771000000004,-74.005234,Approximate,,,Drive-Thru Window,Wi-Fi
1000948669,51,Locations: Chain Restaurants,McDonald's,320 E Hanes Mill Rd,WINSTON SALEM,NC,27105-9135,Location,United States of America,3363772554.0,1000017996,McDonald's Corporation,CHICAGO,IL,60607,,,,,,,48460.0,37067.0,FORSYTH,49180.0,"Winston-Salem, NC",3120.0,"GREENSBORO--WINSTON-SALEM--HIGH POINT, NC",,,36.192038000000004,-80.27371099999999,Approximate,,,Drive-Thru Window,Wi-Fi
1000951984,51,Locations: Chain Restaurants,McDonald's,400 Butler Cmns,BUTLER,PA,16001-2496,Location,United States of America,7242823399.0,1000017996,McDonald's Corporation,CHICAGO,IL,60607,,,,,,,49030.0,42019.0,BUTLER,38300.0,"Pittsburgh, PA",6280.0,"PITTSBURGH, PA",,,40.878180799999996,-79.9431961,Approximate,,,Drive-Thru Window,Wi-Fi
1000950357,51,Locations: Chain Restaurants,McDonald's,354 Private Road 288,SOUTH POINT,OH,45680,Location,United States of America,7408941133.0,1000017996,McDonald's Corporation,CHICAGO,IL,60607,,,,,,,47860.0,39087.0,LAWRENCE,26580.0,"Huntington-Ashland, WV-KY-OH",3400.0,"HUNTINGTON-ASHLAND, WV-KY-OH",,,38.410833000000004,-82.524609,Approximate,,,Drive-Thru Window,Wi-Fi
1000951431,51,Locations: Chain Restaurants,McDonald's,38400 W 10 Mile Rd,FARMINGTN HLS,MI,48335-2808,Location,United States of America,2484777869.0,1000017996,McDonald's Corporation,CHICAGO,IL,60607,,,,,,,53270.0,26125.0,OAKLAND,19820.0,"Detroit-Warren-Dearborn, MI",2162.0,"DETROIT-ANN ARBOR-FLINT, MI",2160.0,"DETROIT, MI",42.468752,-83.42594190000001,Approximate,,,Drive-Thru Window,Wi-Fi
1000951678,51,Locations: Chain Restaurants,McDonald's,39142 Natchez Dr,SLIDELL,LA,70461-2142,Location,United States of America,9856462086.0,1000017996,McDonald's Corporation,CHICAGO,IL,60607,,,,,,,49190.0,22103.0,SAINT TAMMANY,35380.0,"New Orleans-Metairie, LA",5560.0,"NEW ORLEANS, LA",,,30.278465999999998,-89.74891600000001,Approximate,,,Drive-Thru Window,Wi-Fi
1000953629,51,Locations: Chain Restaurants,McDonald's,4343 Park Rd,CHARLOTTE,NC,28209-2233,Location,United States of America,7045239777.0,1000017996,McDonald's Corporation,CHICAGO,IL,60607,,,,,,,53990.0,37119.0,MECKLENBURG,16740.0,"Charlotte-Concord-Gastonia, NC-SC",1520.0,"CHARLOTTE-GASTONIA-ROCK HILL, NC-SC",,,35.1724654,-80.85048470000001,Approximate,,,Drive-Thru Window,Wi-Fi
1000954150,51,Locations: Chain Restaurants,McDonald's,450 5th St NW,WASHINGTON,DC,20001-2727,Location,United States of America,2026287469.0,1000017996,McDonald's Corporation,CHICAGO,IL,60607,,,,,,,56280.0,11001.0,DISTRICT OF COLUMBIA,47900.0,"Washington-Arlington-Alexandria, DC-VA-MD-WV",8872.0,"WASHINGTON-BALTIMORE, DC-MD-VA-WV",8840.0,"WASHINGTON, DC-MD-VA-WV",38.895975,-77.019471,Approximate,,,Drive-Thru Window,Wi-Fi
1000952913,51,Locations: Chain Restaurants,McDonald's,416 Oberlin Rd,RALEIGH,NC,27605-1329,Location,United States of America,9198339101.0,1000017996,McDonald's Corporation,CHICAGO,IL,60607,,,,,,,52210.0,37183.0,WAKE,39580.0,"Raleigh, NC",6640.0,"RALEIGH-DURHAM-CHAPEL HILL, NC",,,35.7905899,-78.6625423,Approximate,,,Drive-Thru Window,Wi-Fi
1000953439,51,Locations: Chain Restaurants,McDonald's,430 State St,ERIE,PA,16501-1131,Location,United States of America,8144524406.0,1000017996,McDonald's Corporation,CHICAGO,IL,60607,,,,,,,50200.0,42049.0,ERIE,21500.0,"Erie, PA",2360.0,"ERIE, PA",,,42.130494299999995,-80.0864931,Approximate,,,Drive-Thru Window,Wi-Fi
1000954238,51,Locations: Chain Restaurants,McDonald's,4505 E McKellips Rd,MESA,AZ,85215-2523,Location,United States of America,4806419032.0,1000017996,McDonald's Corporation,CHICAGO,IL,60607,,,,,,,52660.0,4013.0,MARICOPA,38060.0,"Phoenix-Mesa-Scottsdale, AZ",6200.0,"PHOENIX-MESA, AZ",,,33.4495883,-111.7341442,Approximate,,,Drive-Thru Window,Wi-Fi
1000956272,51,Locations: Chain Restaurants,McDonald's,5100 S Broadway,ENGLEWOOD,CO,80113-6706,Location,United States of America,3038069244.0,1000017996,McDonald's Corporation,CHICAGO,IL,60607,,,,,,,53200.0,8005.0,ARAPAHOE,19740.0,"Denver-Aurora-Lakewood, CO",2082.0,"DENVER-BOULDER-GREELEY, CO",2080.0,"DENVER, CO",39.623737,-104.987351,Approximate,,,Drive-Thru Window,Wi-Fi
1000954562,51,Locations: Chain Restaurants,McDonald's,4610 W Kingshighway,PARAGOULD,AR,72450-2586,Location,United States of America,8702399192.0,1000017996,McDonald's Corporation,CHICAGO,IL,60607,,,,,,,48710.0,5055.0,GREENE,37500.0,"Paragould, AR",,,,,36.0595002,-90.547296,Approximate,,,Drive-Thru Window,Wi-Fi
1000954824,51,Locations: Chain Restaurants,McDonald's,4704 Golden Gate Pkwy,NAPLES,FL,34116-6902,Location,United States of America,2393481558.0,1000017996,McDonald's Corporation,CHICAGO,IL,60607,,,,,,,50020.0,12021.0,COLLIER,34940.0,"Naples-Immokalee-Marco Island, FL",5345.0,"NAPLES, FL",,,26.1828014,-81.701932,Approximate,,,Drive-Thru Window,Wi-Fi
1000957102,51,Locations: Chain Restaurants,McDonald's,536 Whipple Ave,REDWOOD CITY,CA,94063-1124,Location,United States of America,6503676879.0,1000017996,McDonald's Corporation,CHICAGO,IL,60607,,,,,,,58070.0,6081.0,SAN MATEO,41860.0,"San Francisco-Oakland-Hayward, CA",7362.0,"SAN FRANCISCO-OAKLAND-SAN JOSE, CA",7360.0,"SAN FRANCISCO, CA",37.4941009,-122.2356632,Approximate,,,Drive-Thru Window,Wi-Fi
1000954986,51,Locations: Chain Restaurants,McDonald's,4754 S Highway 95,FORT MOHAVE,AZ,86426-9377,Location,United States of America,9287041717.0,1000017996,McDonald's Corporation,CHICAGO,IL,60607,,,,,,,48530.0,4015.0,MOHAVE,29420.0,"Lake Havasu City-Kingman, AZ",4120.0,"LAS VEGAS, NV-AZ",,,35.018239,-114.597495,Approximate,,,Drive-Thru Window,Wi-Fi
1000955941,51,Locations: Chain Restaurants,McDonald's,5015 Westheimer Rd,HOUSTON,TX,77056-5610,Location,United States of America,7138408646.0,1000017996,McDonald's Corporation,CHICAGO,IL,60607,,,,,,,57760.0,48201.0,HARRIS,26420.0,"Houston-The Woodlands-Sugar Land, TX",3362.0,"HOUSTON-GALVESTON-BRAZORIA, TX",3360.0,"HOUSTON, TX",29.738999699999997,-95.4632574,Approximate,,,Drive-Thru Window,Wi-Fi
1000956093,51,Locations: Chain Restaurants,McDonald's,505 Smithfield St,PITTSBURGH,PA,15222-2239,Location,United States of America,4122811777.0,1000017996,McDonald's Corporation,CHICAGO,IL,60607,,,,,,,52440.0,42003.0,ALLEGHENY,38300.0,"Pittsburgh, PA",6280.0,"PITTSBURGH, PA",,,40.440383000000004,-79.9985823,Approximate,,,Drive-Thru Window,Wi-Fi
1000958169,51,Locations: Chain Restaurants,McDonald's,5791 US Highway 11,PURVIS,MS,39475,Location,United States of America,6017440140.0,1000017996,McDonald's Corporation,CHICAGO,IL,60607,,,,,,,48080.0,28073.0,LAMAR,25620.0,"Hattiesburg, MS",3285.0,"HATTIESBURG, MS",,,31.145094300000004,-89.404599,Approximate,,,Drive-Thru Window,Wi-Fi
1000958172,51,Locations: Chain Restaurants,McDonald's,57980 29 Palms Hwy,YUCCA VALLEY,CA,92284-5878,Location,United States of America,7602289200.0,1000017996,McDonald's Corporation,CHICAGO,IL,60607,,,,,,,48380.0,6071.0,SAN BERNARDINO,40140.0,"Riverside-San Bernardino-Ontario, CA",4472.0,"LOS ANGELES-RIVERSIDE-ORANGE COUNTY, CA",6780.0,"RIVERSIDE-SAN BERNARDINO, CA",34.129453000000005,-116.39954569999999,Approximate,,,Drive-Thru Window,Wi-Fi
1000958791,51,Locations: Chain Restaurants,McDonald's,600 W 125th St,NEW YORK,NY,10027-2302,Location,United States of America,6468820354.0,1000017996,McDonald's Corporation,CHICAGO,IL,60607,,,,,,,69110.0,36061.0,NEW YORK,35620.0,"New York-Newark-Jersey City, NY-NJ-PA",5602.0,"NEW YORK-NORTHERN NEW JERSEY-LONG ISLAND, NY-NJ-CT-PA",5600.0,"NEW YORK, NY",40.8159407,-73.9589095,Approximate,,,Drive-Thru Window,Wi-Fi
1000958905,51,Locations: Chain Restaurants,McDonald's,601 N Lincoln Rd,ESCANABA,MI,49829-1426,Location,United States of America,9067892116.0,1000017996,McDonald's Corporation,CHICAGO,IL,60607,,,,,,,48270.0,26041.0,DELTA,21540.0,"Escanaba, MI",,,,,45.7530917,-87.0826417,Approximate,,,Drive-Thru Window,Wi-Fi
1000958958,51,Locations: Chain Restaurants,McDonald's,602 S Harris St,WILLOW SPRINGS,MO,65793-1607,Location,United States of America,4174694161.0,1000017996,McDonald's Corporation,CHICAGO,IL,60607,,,,,,,47500.0,29091.0,HOWELL,48460.0,"West Plains, MO",,,,,36.9860947,-91.97663109999999,Approximate,,,Drive-Thru Window,Wi-Fi
1000959150,51,Locations: Chain Restaurants,McDonald's,608 Newman Springs Rd,LINCROFT,NJ,07738-1722,Location,United States of America,7329360870.0,1000017996,McDonald's Corporation,CHICAGO,IL,60607,,,,,,,51710.0,34025.0,MONMOUTH,35620.0,"New York-Newark-Jersey City, NY-NJ-PA",5602.0,"NEW YORK-NORTHERN NEW JERSEY-LONG ISLAND, NY-NJ-CT-PA",5190.0,"MONMOUTH-OCEAN, NJ",40.331984000000006,-74.118095,Approximate,,,Drive-Thru Window,Wi-Fi
1000959347,51,Locations: Chain Restaurants,McDonald's,6134 State Route 14,RAVENNA,OH,44266-9625,Location,United States of America,3302967733.0,1000017996,McDonald's Corporation,CHICAGO,IL,60607,,,,,,,48690.0,39133.0,PORTAGE,10420.0,"Akron, OH",1692.0,"CLEVELAND-AKRON, OH",80.0,"AKRON, OH",41.157453499999995,-81.21846090000001,Approximate,,,Drive-Thru Window,Wi-Fi
1000959375,51,Locations: Chain Restaurants,McDonald's,615 N Mathilda Ave,SUNNYVALE,CA,94086-3509,Location,United States of America,4087335319.0,1000017996,McDonald's Corporation,CHICAGO,IL,60607,,,,,,,59590.0,6085.0,SANTA CLARA,41940.0,"San Jose-Sunnyvale-Santa Clara, CA",7362.0,"SAN FRANCISCO-OAKLAND-SAN JOSE, CA",7400.0,"SAN JOSE, CA",37.3923429,-122.0302422,Approximate,,,Drive-Thru Window,Wi-Fi
1000957488,51,Locations: Chain Restaurants,McDonald's,5501 S Olive St,PINE BLUFF,AR,71603-7607,Location,United States of America,8708502381.0,1000017996,McDonald's Corporation,CHICAGO,IL,60607,,,,,,,48450.0,5069.0,JEFFERSON,38220.0,"Pine Bluff, AR",6240.0,"PINE BLUFF, AR",,,34.174048,-92.00314300000001,Approximate,,,Drive-Thru Window,Wi-Fi
1000959831,51,Locations: Chain Restaurants,McDonald's,6333 Route 25A,WADING RIVER,NY,11792-2004,Location,United States of America,6319295513.0,1000017996,McDonald's Corporation,CHICAGO,IL,60607,,,,,,,50310.0,36103.0,SUFFOLK,35620.0,"New York-Newark-Jersey City, NY-NJ-PA",5602.0,"NEW YORK-NORTHERN NEW JERSEY-LONG ISLAND, NY-NJ-CT-PA",5380.0,"NASSAU-SUFFOLK, NY",40.9434821,-72.842472,Approximate,,,Drive-Thru Window,Wi-Fi
1000958221,51,Locations: Chain Restaurants,McDonald's,5801 Beach Blvd,JACKSONVILLE,FL,32207-5164,Location,United States of America,9043960136.0,1000017996,McDonald's Corporation,CHICAGO,IL,60607,,,,,,,51500.0,12031.0,DUVAL,27260.0,"Jacksonville, FL",3600.0,"JACKSONVILLE, FL",,,30.293683299999998,-81.6040555,Approximate,,,Drive-Thru Window,Wi-Fi
1000961380,51,Locations: Chain Restaurants,McDonald's,701 Russell Ave,GAITHERSBURG,MD,20877-2640,Location,United States of America,2406831473.0,1000017996,McDonald's Corporation,CHICAGO,IL,60607,,,,,,,51500.0,24031.0,MONTGOMERY,47900.0,"Washington-Arlington-Alexandria, DC-VA-MD-WV",8872.0,"WASHINGTON-BALTIMORE, DC-MD-VA-WV",8840.0,"WASHINGTON, DC-MD-VA-WV",39.153826,-77.2042142,Approximate,,,Drive-Thru Window,Wi-Fi
1000961950,51,Locations: Chain Restaurants,McDonald's,720 E Broad St,ROCKINGHAM,NC,28380,Location,United States of America,9102051035.0,1000017996,McDonald's Corporation,CHICAGO,IL,60607,,,,,,,48430.0,37153.0,RICHMOND,40460.0,"Rockingham, NC",,,,,34.9208034,-79.7492078,Approximate,,,Drive-Thru Window,Wi-Fi
1000962061,51,Locations: Chain Restaurants,McDonald's,72255 Varner Rd,THOUSAND PALMS,CA,92276-3342,Location,United States of America,7603431488.0,1000017996,McDonald's Corporation,CHICAGO,IL,60607,,,,,,,50670.0,6065.0,RIVERSIDE,40140.0,"Riverside-San Bernardino-Ontario, CA",4472.0,"LOS ANGELES-RIVERSIDE-ORANGE COUNTY, CA",6780.0,"RIVERSIDE-SAN BERNARDINO, CA",33.8170614,-116.40236399999999,Approximate,,,Drive-Thru Window,Wi-Fi
1000962091,51,Locations: Chain Restaurants,McDonald's,724 W Stadium Blvd,JEFFERSON CITY,MO,65109-4772,Location,United States of America,5736345899.0,1000017996,McDonald's Corporation,CHICAGO,IL,60607,,,,,,,49370.0,29051.0,COLE,27620.0,"Jefferson City, MO",,,,,38.5799604,-92.2200669,Approximate,,,Drive-Thru Window,Wi-Fi
1000962266,51,Locations: Chain Restaurants,McDonald's,732 Center Dr,SAN MARCOS,CA,92069-3535,Location,United States of America,7607815164.0,1000017996,McDonald's Corporation,CHICAGO,IL,60607,,,,,,,52490.0,6073.0,SAN DIEGO,41740.0,"San Diego-Carlsbad, CA",7320.0,"SAN DIEGO, CA",,,33.135612,-117.123447,Approximate,,,Drive-Thru Window,Wi-Fi
1000962438,51,Locations: Chain Restaurants,McDonald's,7400 Rivers Ave,NORTH CHARLESTON,SC,29406-4644,Location,United States of America,8435725004.0,1000017996,McDonald's Corporation,CHICAGO,IL,60607,,,,,,,48510.0,45019.0,CHARLESTON,16700.0,"Charleston-North Charleston, SC",1440.0,"CHARLESTON-NORTH CHARLESTON, SC",,,32.939062,-80.035524,Approximate,,,Drive-Thru Window,Wi-Fi
1000962550,51,Locations: Chain Restaurants,McDonald's,7451 McCart Ave,FORT WORTH,TX,76133-7296,Location,United States of America,8173462771.0,1000017996,McDonald's Corporation,CHICAGO,IL,60607,,,,,,,51430.0,48439.0,TARRANT,19100.0,"Dallas-Fort Worth-Arlington, TX",1922.0,"DALLAS-FORT WORTH, TX",2800.0,"FORT WORTH-ARLINGTON, TX",32.6370804,-97.36720859999998,Approximate,,,Drive-Thru Window,Wi-Fi
1000961342,51,Locations: Chain Restaurants,McDonald's,701 Broadway St,LITTLE ROCK,AR,72201-4121,Location,United States of America,5013722661.0,1000017996,McDonald's Corporation,CHICAGO,IL,60607,,,,,,,50810.0,5119.0,PULASKI,30780.0,"Little Rock-North Little Rock-Conway, AR",4400.0,"LITTLE ROCK-NORTH LITTLE ROCK, AR",,,34.7425307,-92.27609240000001,Approximate,,,Drive-Thru Window,Wi-Fi
1000962115,51,Locations: Chain Restaurants,McDonald's,7250 Carson Blvd,LONG BEACH,CA,90808-2358,Location,United States of America,5624256021.0,1000017996,McDonald's Corporation,CHICAGO,IL,60607,,,,,,,56450.0,6037.0,LOS ANGELES,31080.0,"Los Angeles-Long Beach-Anaheim, CA",4472.0,"LOS ANGELES-RIVERSIDE-ORANGE COUNTY, CA",4480.0,"LOS ANGELES-LONG BEACH, CA",33.829313,-118.0906595,Approximate,,,Drive-Thru Window,Wi-Fi
1000964048,51,Locations: Chain Restaurants,McDonald's,912 Martin Luther King Jr Dr SW,ATLANTA,GA,30314-3625,Location,United States of America,4047569970.0,1000017996,McDonald's Corporation,CHICAGO,IL,60607,,,,,,,49970.0,13121.0,FULTON,12060.0,"Atlanta-Sandy Springs-Roswell, GA",520.0,"ATLANTA, GA",,,33.7542657,-84.4172126,Approximate,,,Drive-Thru Window,Wi-Fi
1000964365,51,Locations: Chain Restaurants,McDonald's,809 W Lafayette St,WATSEKA,IL,60970-0413,Location,United States of America,8154325020.0,1000017996,McDonald's Corporation,CHICAGO,IL,60607,,,,,,,48010.0,17075.0,IROQUOIS,,,,,,,40.7796295,-87.74682840000001,Approximate,,,Drive-Thru Window,Wi-Fi
1000962981,51,Locations: Chain Restaurants,McDonald's,7680 Brandt Pike,HUBER HEIGHTS,OH,45424-2340,Location,United States of America,9372355081.0,1000017996,McDonald's Corporation,CHICAGO,IL,60607,,,,,,,49110.0,39113.0,MONTGOMERY,19380.0,"Dayton, OH",2000.0,"DAYTON-SPRINGFIELD, OH",,,39.863124299999996,-84.0982282,Approximate,,,Drive-Thru Window,Wi-Fi
1000965226,51,Locations: Chain Restaurants,McDonald's,880 N Highway 190,COVINGTON,LA,70433-5147,Location,United States of America,9858719509.0,1000017996,McDonald's Corporation,CHICAGO,IL,60607,,,,,,,49260.0,22103.0,SAINT TAMMANY,35380.0,"New Orleans-Metairie, LA",5560.0,"NEW ORLEANS, LA",,,30.4432582,-90.07876040000001,Approximate,,,Drive-Thru Window,Wi-Fi
1000963013,51,Locations: Chain Restaurants,McDonald's,770 Pine St,MACON,GA,31201-7502,Location,United States of America,4787469907.0,1000017996,McDonald's Corporation,CHICAGO,IL,60607,,,,,,,48700.0,13021.0,BIBB,31420.0,"Macon, GA",4680.0,"MACON, GA",,,32.833967,-83.635468,Approximate,,,Drive-Thru Window,Wi-Fi
1000963125,51,Locations: Chain Restaurants,McDonald's,777 Walker St,HOUSTON,TX,77002-5316,Location,United States of America,7132378177.0,1000017996,McDonald's Corporation,CHICAGO,IL,60607,,,,,,,58530.0,48201.0,HARRIS,26420.0,"Houston-The Woodlands-Sugar Land, TX",3362.0,"HOUSTON-GALVESTON-BRAZORIA, TX",3360.0,"HOUSTON, TX",29.759185100000003,-95.3662691,Approximate,,,Drive-Thru Window,Wi-Fi
1000963729,51,Locations: Chain Restaurants,McDonald's,801 Wolf Ledges Pkwy,AKRON,OH,44311-2002,Location,United States of America,3304342208.0,1000017996,McDonald's Corporation,CHICAGO,IL,60607,,,,,,,51000.0,39153.0,SUMMIT,10420.0,"Akron, OH",1692.0,"CLEVELAND-AKRON, OH",80.0,"AKRON, OH",41.0619886,-81.5187579,Approximate,,,Drive-Thru Window,Wi-Fi
1000963798,51,Locations: Chain Restaurants,McDonald's,8030 Bandera Rd,SAN ANTONIO,TX,78250-5130,Location,United States of America,2105220139.0,1000017996,McDonald's Corporation,CHICAGO,IL,60607,,,,,,,50440.0,48029.0,BEXAR,41700.0,"San Antonio-New Braunfels, TX",7240.0,"SAN ANTONIO, TX",,,29.518672600000002,-98.6333814,Approximate,,,Drive-Thru Window,Wi-Fi
1000963930,51,Locations: Chain Restaurants,McDonald's,809 Lake Bradford Rd,TALLAHASSEE,FL,32304-4730,Location,United States of America,8505750722.0,1000017996,McDonald's Corporation,CHICAGO,IL,60607,,,,,,,50190.0,12073.0,LEON,45220.0,"Tallahassee, FL",8240.0,"TALLAHASSEE, FL",,,30.433626500000003,-84.3014413,Approximate,,,Drive-Thru Window,Wi-Fi
1000964178,51,Locations: Chain Restaurants,McDonald's,819 Plaza Dr,WEST COVINA,CA,91790-2826,Location,United States of America,6263388183.0,1000017996,McDonald's Corporation,CHICAGO,IL,60607,,,,,,,53860.0,6037.0,LOS ANGELES,31080.0,"Los Angeles-Long Beach-Anaheim, CA",4472.0,"LOS ANGELES-RIVERSIDE-ORANGE COUNTY, CA",4480.0,"LOS ANGELES-LONG BEACH, CA",34.070911100000004,-117.933099,Approximate,,,Drive-Thru Window,Wi-Fi
1000966147,51,Locations: Chain Restaurants,McDonald's,920 W Mesquite Blvd,MESQUITE,NV,89027-5204,Location,United States of America,7023467536.0,1000017996,McDonald's Corporation,CHICAGO,IL,60607,,,,,,,48520.0,32003.0,CLARK,29820.0,"Las Vegas-Henderson-Paradise, NV",4120.0,"LAS VEGAS, NV-AZ",,,36.803365,-114.0991129,Approximate,,,Drive-Thru Window,Wi-Fi
1000966265,51,Locations: Chain Restaurants,McDonald's,9260 Canal Rd,GULFPORT,MS,39503-9086,Location,United States of America,2288631510.0,1000017996,McDonald's Corporation,CHICAGO,IL,60607,,,,,,,48120.0,28047.0,HARRISON,25060.0,"Gulfport-Biloxi-Pascagoula, MS",920.0,"BILOXI-GULFPORT-PASCAGOULA, MS",,,30.420057300000003,-89.13579849999999,Approximate,,,Drive-Thru Window,Wi-Fi
1000966391,51,Locations: Chain Restaurants,McDonald's,9350 Cortana Pl,BATON ROUGE,LA,70815-8603,Location,United States of America,2259263820.0,1000017996,McDonald's Corporation,CHICAGO,IL,60607,,,,,,,50620.0,22033.0,EAST BATON ROUGE,12940.0,"Baton Rouge, LA",760.0,"BATON ROUGE, LA",,,30.462558,-91.090857,Approximate,,,Drive-Thru Window,Wi-Fi
1000965591,51,Locations: Chain Restaurants,McDonald's,900 N Mulberry St,ELIZABETHTOWN,KY,42701-2035,Location,United States of America,2707693744.0,1000017996,McDonald's Corporation,CHICAGO,IL,60607,,,,,,,49240.0,21093.0,HARDIN,21060.0,"Elizabethtown-Fort Knox, KY",,,,,37.7050387,-85.84678840000001,Approximate,,,Drive-Thru Window,Wi-Fi
1000967271,51,Locations: Chain Restaurants,McDonald's,9980 Florida Blvd,BATON ROUGE,LA,70815-1402,Location,United States of America,2252759206.0,1000017996,McDonald's Corporation,CHICAGO,IL,60607,,,,,,,51600.0,22033.0,EAST BATON ROUGE,12940.0,"Baton Rouge, LA",760.0,"BATON ROUGE, LA",,,30.4559756,-91.07311159999999,Approximate,,,Drive-Thru Window,Wi-Fi
1000967345,51,Locations: Chain Restaurants,McDonald's,13420 W Coal Mine Ave,LITTLETON,CO,80127-5402,Location,United States of America,7209819944.0,1000017996,McDonald's Corporation,CHICAGO,IL,60607,,,,,,,52230.0,8059.0,JEFFERSON,19740.0,"Denver-Aurora-Lakewood, CO",2082.0,"DENVER-BOULDER-GREELEY, CO",2080.0,"DENVER, CO",39.608325,-105.150291,Approximate,,,Drive-Thru Window,Wi-Fi
1000967364,51,Locations: Chain Restaurants,McDonald's,85 Callohill Dr,LOVINGSTON,VA,22949,Location,United States of America,4342638066.0,1000017996,McDonald's Corporation,CHICAGO,IL,60607,,,,,,,48040.0,51125.0,NELSON,16820.0,"Charlottesville, VA",,,,,37.753743799999995,-78.8767397,Approximate,,,Drive-Thru Window,Wi-Fi
1000967412,51,Locations: Chain Restaurants,McDonald's,67 Dunning Rd,MALTA,NY,12020,Location,United States of America,5188997121.0,1000017996,McDonald's Corporation,CHICAGO,IL,60607,,,,,,,49910.0,36091.0,SARATOGA,10580.0,"Albany-Schenectady-Troy, NY",160.0,"ALBANY-SCHENECTADY-TROY, NY",,,42.970429100000004,-73.7958607,Approximate,,,Drive-Thru Window,Wi-Fi
1000967458,51,Locations: Chain Restaurants,McDonald's,8010 N Dort Hwy,MOUNT MORRIS,MI,48458-1205,Location,United States of America,8106870454.0,1000017996,McDonald's Corporation,CHICAGO,IL,60607,,,,,,,48740.0,26049.0,GENESEE,22420.0,"Flint, MI",2162.0,"DETROIT-ANN ARBOR-FLINT, MI",2640.0,"FLINT, MI",43.1204112,-83.6754262,Approximate,,,Drive-Thru Window,Wi-Fi
1000967545,51,Locations: Chain Restaurants,McDonald's,2045 Confederate Blvd,APPOMATTOX,VA,24522,Location,United States of America,4343522878.0,1000017996,McDonald's Corporation,CHICAGO,IL,60607,,,,,,,47990.0,51011.0,APPOMATTOX,31340.0,"Lynchburg, VA",,,,,37.3617826,-78.8331874,Approximate,,,Drive-Thru Window,Wi-Fi
1000967562,51,Locations: Chain Restaurants,McDonald's,2030 NC Highway 86 N,YANCEYVILLE,NC,27379,Location,United States of America,3366946977.0,1000017996,McDonald's Corporation,CHICAGO,IL,60607,,,,,,,47390.0,37033.0,CASWELL,,,,,,,36.4172937,-79.35003950000001,Approximate,,,Drive-Thru Window,Wi-Fi
1000967591,51,Locations: Chain Restaurants,McDonald's,1625 NC Highway 67,JONESVILLE,NC,28642-9246,Location,United States of America,3365264308.0,1000017996,McDonald's Corporation,CHICAGO,IL,60607,,,,,,,48120.0,37197.0,YADKIN,49180.0,"Winston-Salem, NC",3120.0,"GREENSBORO--WINSTON-SALEM--HIGH POINT, NC",,,36.239601,-80.820943,Approximate,,,Drive-Thru Window,Wi-Fi
1000967828,51,Locations: Chain Restaurants,McDonald's,Pa Rt 502 & Pa Rt 435,MOSCOW,PA,18444,Location,United States of America,5708424660.0,1000017996,McDonald's Corporation,CHICAGO,IL,60607,,,,,,,48740.0,42069.0,LACKAWANNA,42540.0,"Scranton-Wilkes-Barre-Hazleton, PA",7560.0,"SCRANTON--WILKES-BARRE--HAZLETON, PA",,,41.307973,-75.51447409999999,Approximate,,,Drive-Thru Window,Wi-Fi
1000967895,51,Locations: Chain Restaurants,McDonald's,549 River Rd,EDGEWATER,NJ,07020-1146,Location,United States of America,2019419392.0,1000017996,McDonald's Corporation,CHICAGO,IL,60607,,,,,,,54040.0,34003.0,BERGEN,35620.0,"New York-Newark-Jersey City, NY-NJ-PA",5602.0,"NEW YORK-NORTHERN NEW JERSEY-LONG ISLAND, NY-NJ-CT-PA",875.0,"BERGEN-PASSAIC, NJ",40.8136053,-73.98379969999999,Approximate,,,Drive-Thru Window,Wi-Fi
1000968007,51,Locations: Chain Restaurants,McDonald's,6250 W Manchester Mall,YORK,PA,17404,Location,United States of America,7177648923.0,1000017996,McDonald's Corporation,CHICAGO,IL,60607,,,,,,,49570.0,42133.0,YORK,49620.0,"York-Hanover, PA",9280.0,"YORK, PA",,,39.968766200000005,-76.7724785,Approximate,,,,
1000968018,51,Locations: Chain Restaurants,McDonald's,Highway 33 & 35,NEPTUNE,NJ,7753,Location,United States of America,7327747907.0,1000017996,McDonald's Corporation,CHICAGO,IL,60607,,,,,,,52820.0,34025.0,MONMOUTH,35620.0,"New York-Newark-Jersey City, NY-NJ-PA",5602.0,"NEW YORK-NORTHERN NEW JERSEY-LONG ISLAND, NY-NJ-CT-PA",5190.0,"MONMOUTH-OCEAN, NJ",40.2096213,-74.0281801,Approximate,,,Drive-Thru Window,Wi-Fi
1000966541,51,Locations: Chain Restaurants,McDonald's,945 Abbott St,SALINAS,CA,93901-4361,Location,United States of America,8317575796.0,1000017996,McDonald's Corporation,CHICAGO,IL,60607,,,,,,,51310.0,6053.0,MONTEREY,41500.0,"Salinas, CA",7120.0,"SALINAS, CA",,,36.658118,-121.635899,Approximate,,,Drive-Thru Window,Wi-Fi
1000968131,51,Locations: Chain Restaurants,McDonald's,517 Stokes Dr,HINTON,WV,25951-2553,Location,United States of America,3044660084.0,1000017996,McDonald's Corporation,CHICAGO,IL,60607,,,,,,,47820.0,54089.0,SUMMERS,,,,,,,37.65685870000001,-80.8879398,Approximate,,,Drive-Thru Window,Wi-Fi
1000968197,51,Locations: Chain Restaurants,McDonald's,900 US 150 Bypass,STANFORD,KY,40484,Location,United States of America,6063652186.0,1000017996,McDonald's Corporation,CHICAGO,IL,60607,,,,,,,47840.0,21137.0,LINCOLN,19220.0,"Danville, KY",,,,,37.5414573,-84.6550546,Approximate,,,Drive-Thru Window,Wi-Fi
1000966764,51,Locations: Chain Restaurants,McDonald's,9595 N Kings Hwy,MYRTLE BEACH,SC,29572-4005,Location,United States of America,8434491150.0,1000017996,McDonald's Corporation,CHICAGO,IL,60607,,,,,,,49740.0,45051.0,HORRY,34820.0,"Myrtle Beach-Conway-North Myrtle Beach, SC-NC",5330.0,"MYRTLE BEACH, SC",,,33.7775823,-78.7948425,Approximate,,,Drive-Thru Window,Wi-Fi
1000966788,51,Locations: Chain Restaurants,McDonald's,956 W Reynolds St,PONTIAC,IL,61764-2373,Location,United States of America,8158422522.0,1000017996,McDonald's Corporation,CHICAGO,IL,60607,,,,,,,48440.0,17105.0,LIVINGSTON,38700.0,"Pontiac, IL",,,,,40.8731733,-88.6430483,Approximate,,,Drive-Thru Window,Wi-Fi
1000967143,51,Locations: Chain Restaurants,McDonald's,98Th & Grant Walmart,THORNTON,CO,80229-2157,Location,United States of America,3034518658.0,1000017996,McDonald's Corporation,CHICAGO,IL,60607,,,,,,,50600.0,8001.0,ADAMS,19740.0,"Denver-Aurora-Lakewood, CO",2082.0,"DENVER-BOULDER-GREELEY, CO",2080.0,"DENVER, CO",39.876242,-104.986153,Rooftop,,,Drive-Thru Window,Wi-Fi
1000969410,51,Locations: Chain Restaurants,McDonald's,3200 W Wheatland Rd,DALLAS,TX,75237-3454,Location,United States of America,9722967290.0,1000017996,McDonald's Corporation,CHICAGO,IL,60607,,,,,,,50530.0,48113.0,DALLAS,19100.0,"Dallas-Fort Worth-Arlington, TX",1922.0,"DALLAS-FORT WORTH, TX",1920.0,"DALLAS, TX",32.6495562,-96.8730479,Approximate,,,Drive-Thru Window,Wi-Fi
1000967483,51,Locations: Chain Restaurants,McDonald's,80 Spine Road,COLLEGE PARK,GA,30320,Location,United States of America,4047662736.0,1000017996,McDonald's Corporation,CHICAGO,IL,60607,,,,,,,50040.0,13063.0,CLAYTON,12060.0,"Atlanta-Sandy Springs-Roswell, GA",520.0,"ATLANTA, GA",,,33.614202,-84.437427,Approximate,,,Drive-Thru Window,Wi-Fi
1000967800,51,Locations: Chain Restaurants,McDonald's,NY 23,ONEONTA,NY,13820,Location,United States of America,6074327608.0,1000017996,McDonald's Corporation,CHICAGO,IL,60607,,,,,,,48540.0,36077.0,OTSEGO,36580.0,"Oneonta, NY",,,,,42.4472314,-75.0500481,Approximate,,,Drive-Thru Window,Wi-Fi
1000967846,51,Locations: Chain Restaurants,McDonald's,Penn Station Lower Level Lirr,NEW YORK,NY,10119,Location,United States of America,2127366157.0,1000017996,McDonald's Corporation,CHICAGO,IL,60607,,,,,,,65670.0,36061.0,NEW YORK,35620.0,"New York-Newark-Jersey City, NY-NJ-PA",5602.0,"NEW YORK-NORTHERN NEW JERSEY-LONG ISLAND, NY-NJ-CT-PA",5600.0,"NEW YORK, NY",40.750164,-73.992559,Approximate,,,Drive-Thru Window,Wi-Fi
2000013734,51,Locations: Chain Restaurants,McDonald's,2000 W 1800 N,CLINTON,UT,84015,Location,United States of America,8017733001.0,1000017996,McDonald's Corporation,CHICAGO,IL,60607,,,,,,,50870.0,49011.0,DAVIS,36260.0,"Ogden-Clearfield, UT",7160.0,"SALT LAKE CITY-OGDEN, UT",,,41.1372802,-112.06083390000002,Approximate,,,Drive-Thru Window,Wi-Fi
1000968009,51,Locations: Chain Restaurants,McDonald's,260 N Pottstown Pike,EXTON,PA,19341-2227,Location,United States of America,6103631194.0,1000017996,McDonald's Corporation,CHICAGO,IL,60607,,,,,,,51890.0,42029.0,CHESTER,37980.0,"Philadelphia-Camden-Wilmington, PA-NJ-DE-MD",6162.0,"PHILADELPHIA-WILMINGTON-ATLANTIC CITY, PA-NJ-DE-MD",6160.0,"PHILADELPHIA, PA-NJ",40.0336361,-75.6328949,Approximate,,,Drive-Thru Window,Wi-Fi
2000014339,51,Locations: Chain Restaurants,McDonald's,705 Middletown Warwick Rd,MIDDLETOWN,DE,19709-9095,Location,United States of America,3023764390.0,1000017996,McDonald's Corporation,CHICAGO,IL,60607,,,,,,,48760.0,10003.0,NEW CASTLE,37980.0,"Philadelphia-Camden-Wilmington, PA-NJ-DE-MD",6162.0,"PHILADELPHIA-WILMINGTON-ATLANTIC CITY, PA-NJ-DE-MD",9160.0,"WILMINGTON-NEWARK, DE-MD",39.446249,-75.7380575,Rooftop,,,Drive-Thru Window,Wi-Fi
1000968149,51,Locations: Chain Restaurants,McDonald's,State Highway 61,SHAMOKIN,PA,17866,Location,United States of America,5706441338.0,1000017996,McDonald's Corporation,CHICAGO,IL,60607,,,,,,,48500.0,42097.0,NORTHUMBERLAND,44980.0,"Sunbury, PA",,,,,40.790231799999994,-76.5382377,Approximate,,,Drive-Thru Window,Wi-Fi
1000968239,51,Locations: Chain Restaurants,McDonald's,230 N Front St,PHILIPSBURG,PA,16866-1606,Location,United States of America,8143426074.0,1000017996,McDonald's Corporation,CHICAGO,IL,60607,,,,,,,48210.0,42027.0,CENTRE,44300.0,"State College, PA",8050.0,"STATE COLLEGE, PA",,,40.9031794,-78.23208819999999,Approximate,,,Drive-Thru Window,Wi-Fi
1000968284,51,Locations: Chain Restaurants,McDonald's,5550 E Woodmen Rd,COLORADO SPRINGS,CO,80920-5257,Location,United States of America,7195930099.0,1000017996,McDonald's Corporation,CHICAGO,IL,60607,,,,,,,51660.0,8041.0,EL PASO,17820.0,"Colorado Springs, CO",1720.0,"COLORADO SPRINGS, CO",,,38.942572600000005,-104.7256699,Approximate,,,Drive-Thru Window,Wi-Fi
2000014501,51,Locations: Chain Restaurants,McDonald's,9505 57th Ave,ELMHURST,NY,11373-4616,Location,United States of America,7187609669.0,1000017996,McDonald's Corporation,CHICAGO,IL,60607,,,,,,,70980.0,36081.0,QUEENS,35620.0,"New York-Newark-Jersey City, NY-NJ-PA",5602.0,"NEW YORK-NORTHERN NEW JERSEY-LONG ISLAND, NY-NJ-CT-PA",5600.0,"NEW YORK, NY",40.736828,-73.86558000000001,Approximate,,,Drive-Thru Window,Wi-Fi
2000014518,51,Locations: Chain Restaurants,McDonald's,737 Albany Shaker Rd,ALBANY,NY,12211-1000,Location,United States of America,5182424310.0,1000017996,McDonald's Corporation,CHICAGO,IL,60607,,,,,,,49860.0,36001.0,ALBANY,10580.0,"Albany-Schenectady-Troy, NY",160.0,"ALBANY-SCHENECTADY-TROY, NY",,,42.7456911,-73.8095363,Approximate,,,Drive-Thru Window,Wi-Fi
2000014525,51,Locations: Chain Restaurants,McDonald's,2570 Catamaran Way,SAN DIEGO,CA,92134-0001,Location,United States of America,6195449612.0,1000017996,McDonald's Corporation,CHICAGO,IL,60607,,,,,,,52180.0,6073.0,SAN DIEGO,41740.0,"San Diego-Carlsbad, CA",7320.0,"SAN DIEGO, CA",,,32.655232399999996,-116.95774679999998,Rooftop,,,Drive-Thru Window,Wi-Fi
2000014546,51,Locations: Chain Restaurants,McDonald's,3500 Hypoint Industrial Park Dr,ROLLA,MO,65401-7855,Location,United States of America,5734266797.0,1000017996,McDonald's Corporation,CHICAGO,IL,60607,,,,,,,48240.0,29161.0,PHELPS,40620.0,"Rolla, MO",,,,,37.981568100000004,-91.7193134,Approximate,,,Drive-Thru Window,Wi-Fi
2000014561,51,Locations: Chain Restaurants,McDonald's,3650 Hwy 52,DACONO,CO,80516,Location,United States of America,3038335366.0,1000017996,McDonald's Corporation,CHICAGO,IL,60607,,,,,,,49150.0,8123.0,WELD,24540.0,"Greeley, CO",2082.0,"DENVER-BOULDER-GREELEY, CO",3060.0,"GREELEY, CO",40.086987799999996,-104.9849325,Rooftop,,,Drive-Thru Window,Wi-Fi
2000014588,51,Locations: Chain Restaurants,McDonald's,Mccarren & Hwy 80,RENO,NV,89523,Location,United States of America,7757477700.0,1000017996,McDonald's Corporation,CHICAGO,IL,60607,,,,,,,51090.0,32031.0,WASHOE,39900.0,"Reno, NV",6720.0,"RENO, NV",,,39.535461600000005,-119.86775459999998,Approximate,,,Drive-Thru Window,Wi-Fi
2000014614,51,Locations: Chain Restaurants,McDonald's,400 W Parrish Ln,CENTERVILLE,UT,84014-1735,Location,United States of America,8012920869.0,1000017996,McDonald's Corporation,CHICAGO,IL,60607,,,,,,,50230.0,49011.0,DAVIS,36260.0,"Ogden-Clearfield, UT",7160.0,"SALT LAKE CITY-OGDEN, UT",,,40.91901,-111.8838103,Approximate,,,Drive-Thru Window,Wi-Fi
2000028101,51,Locations: Chain Restaurants,McDonald's,6th & University,DES MOINES,IA,50314,Location,United States of America,5156438735.0,1000017996,McDonald's Corporation,CHICAGO,IL,60607,,,,,,,52490.0,19153.0,POLK,19780.0,"Des Moines-West Des Moines, IA",2120.0,"DES MOINES, IA",,,41.6012475,-93.62666709999999,Approximate,,,Drive-Thru Window,Wi-Fi
2000028196,51,Locations: Chain Restaurants,McDonald's,1330 S Providence Center Dr,CEDAR CITY,UT,84720-3956,Location,United States of America,4358657881.0,1000017996,McDonald's Corporation,CHICAGO,IL,60607,,,,,,,48330.0,49021.0,IRON,16260.0,"Cedar City, UT",,,,,37.654428,-113.08835330000001,Approximate,,,Drive-Thru Window,Wi-Fi
1000969862,51,Locations: Chain Restaurants,McDonald's,564 Newark Ave,JERSEY CITY,NJ,07306-2302,Location,United States of America,2015338695.0,1000017996,McDonald's Corporation,CHICAGO,IL,60607,,,,,,,59610.0,34017.0,HUDSON,35620.0,"New York-Newark-Jersey City, NY-NJ-PA",5602.0,"NEW YORK-NORTHERN NEW JERSEY-LONG ISLAND, NY-NJ-CT-PA",3640.0,"JERSEY CITY, NJ",40.731745000000004,-74.056616,Approximate,,,Drive-Thru Window,Wi-Fi
2000013914,51,Locations: Chain Restaurants,McDonald's,2200 Greengate Centre Cir,GREENSBURG,PA,15601-1290,Location,United States of America,7248341086.0,1000017996,McDonald's Corporation,CHICAGO,IL,60607,,,,,,,49570.0,42129.0,WESTMORELAND,38300.0,"Pittsburgh, PA",6280.0,"PITTSBURGH, PA",,,40.30878679999999,-79.580893,Approximate,,,Drive-Thru Window,Wi-Fi
2000029934,51,Locations: Chain Restaurants,McDonald's,2003 E Rodeo Dr,COTTONWOOD,AZ,86326-5999,Location,United States of America,9286341422.0,1000017996,McDonald's Corporation,CHICAGO,IL,60607,,,,,,,48730.0,4025.0,YAVAPAI,39140.0,"Prescott, AZ",,,,,34.7132534,-112.0010547,Approximate,,,Drive-Thru Window,Wi-Fi
2000014103,51,Locations: Chain Restaurants,McDonald's,41650 W Maricopa Casa Grande Hwy,MARICOPA,AZ,85138-3206,Location,United States of America,5205686688.0,1000017996,McDonald's Corporation,CHICAGO,IL,60607,,,,,,,49050.0,4021.0,PINAL,38060.0,"Phoenix-Mesa-Scottsdale, AZ",6200.0,"PHOENIX-MESA, AZ",,,33.0390654,-112.01419979999999,Approximate,,,Drive-Thru Window,Wi-Fi
2000194474,51,Locations: Chain Restaurants,McDonald's,3151 Apex Peakway,APEX,NC,27502-5709,Location,United States of America,9192902592.0,1000017996,McDonald's Corporation,CHICAGO,IL,60607,,,,,,,51040.0,37183.0,WAKE,39580.0,"Raleigh, NC",6640.0,"RALEIGH-DURHAM-CHAPEL HILL, NC",,,35.714836299999995,-78.8427883,Approximate,,,Drive-Thru Window,Wi-Fi
2000194508,51,Locations: Chain Restaurants,McDonald's,4875 Old York Rd,ROCK HILL,SC,29732-8127,Location,United States of America,8033248768.0,1000017996,McDonald's Corporation,CHICAGO,IL,60607,,,,,,,49730.0,45091.0,YORK,16740.0,"Charlotte-Concord-Gastonia, NC-SC",1520.0,"CHARLOTTE-GASTONIA-ROCK HILL, NC-SC",,,34.9792848,-81.0899101,Approximate,,,Drive-Thru Window,Wi-Fi
2000014583,51,Locations: Chain Restaurants,McDonald's,LOGAN AIRPORT,BOSTON,MA,2128,Location,United States of America,6175618860.0,1000017996,McDonald's Corporation,CHICAGO,IL,60607,,,,,,,51140.0,25025.0,SUFFOLK,14460.0,"Boston-Cambridge-Newton, MA-NH",1122.0,"BOSTON-WORCESTER-LAWRENCE, MA-NH-ME-CT",1120.0,"BOSTON, MA-NH",42.3615029,-71.0186593,Rooftop,,,,
2000194652,51,Locations: Chain Restaurants,McDonald's,1120 W 22nd St,OAK BROOK,IL,60523-2182,Location,United States of America,6303681173.0,1000017996,McDonald's Corporation,CHICAGO,IL,60607,,,,,,,52470.0,17043.0,DUPAGE,16980.0,"Chicago-Naperville-Elgin, IL-IN-WI",1602.0,"CHICAGO-GARY-KENOSHA, IL-IN-WI",1600.0,"CHICAGO, IL",41.8477141,-87.9475978,Approximate,,,Drive-Thru Window,Wi-Fi
2000028778,51,Locations: Chain Restaurants,McDonald's,4424 W Wendover Ave,GREENSBORO,NC,27407-2600,Location,United States of America,3362992393.0,1000017996,McDonald's Corporation,CHICAGO,IL,60607,,,,,,,50100.0,37081.0,GUILFORD,24660.0,"Greensboro-High Point, NC",3120.0,"GREENSBORO--WINSTON-SALEM--HIGH POINT, NC",,,36.057929,-79.9009037,Approximate,,,Drive-Thru Window,Wi-Fi
2000028793,51,Locations: Chain Restaurants,McDonald's,470 N Mayo Trl,PAINTSVILLE,KY,41240-1806,Location,United States of America,6067893911.0,1000017996,McDonald's Corporation,CHICAGO,IL,60607,,,,,,,48210.0,21115.0,JOHNSON,,,,,,,37.8232089,-82.8254179,Approximate,,,Drive-Thru Window,Wi-Fi
2000249420,51,Locations: Chain Restaurants,McDonald's,27284 State Highway 189,BLUE JAY,CA,92317,Location,United States of America,9096933414.0,1000017996,McDonald's Corporation,CHICAGO,IL,60607,,,,,,,49100.0,6071.0,SAN BERNARDINO,40140.0,"Riverside-San Bernardino-Ontario, CA",4472.0,"LOS ANGELES-RIVERSIDE-ORANGE COUNTY, CA",6780.0,"RIVERSIDE-SAN BERNARDINO, CA",34.2476245,-117.2079246,Approximate,,,Drive-Thru Window,Wi-Fi
2000348465,51,Locations: Chain Restaurants,McDonald's,1108 E Main St,PIGGOTT,AR,72454-3004,Location,United States of America,8705981006.0,1000017996,McDonald's Corporation,CHICAGO,IL,60607,,,,,,,47940.0,5021.0,CLAY,,,,,,,36.3823747,-90.1772632,Approximate,,,Drive-Thru Window,Wi-Fi
2000029971,51,Locations: Chain Restaurants,McDonald's,RT 219 & WAVERLY ST,SPRINGVILLE,NY,14141,Location,United States of America,7165923983.0,1000017996,McDonald's Corporation,CHICAGO,IL,60607,,,,,,,48250.0,36029.0,ERIE,15380.0,"Buffalo-Cheektowaga-Niagara Falls, NY",1280.0,"BUFFALO-NIAGARA FALLS, NY",,,42.491522499999995,-78.693986,Rooftop,,,Drive-Thru Window,Wi-Fi
2000194479,51,Locations: Chain Restaurants,McDonald's,L-40 & Hwy 42,GARNER,NC,27529,Location,United States of America,9197727265.0,1000017996,McDonald's Corporation,CHICAGO,IL,60607,,,,,,,48640.0,37183.0,WAKE,39580.0,"Raleigh, NC",6640.0,"RALEIGH-DURHAM-CHAPEL HILL, NC",,,35.607986,-78.5553846,Approximate,,,Drive-Thru Window,Wi-Fi
2000349261,51,Locations: Chain Restaurants,McDonald's,Rt 28S 60 Commons Dr,COOPERSTOWN,NY,13326,Location,United States of America,6075471110.0,1000017996,McDonald's Corporation,CHICAGO,IL,60607,,,,,,,48770.0,36077.0,OTSEGO,36580.0,"Oneonta, NY",,,,,42.6506752,-74.9637928,Approximate,,,Drive-Thru Window,Wi-Fi
2000194796,51,Locations: Chain Restaurants,McDonald's,5845 W Bell Rd,GLENDALE,AZ,85308-3871,Location,United States of America,6029931027.0,1000017996,McDonald's Corporation,CHICAGO,IL,60607,,,,,,,52720.0,4013.0,MARICOPA,38060.0,"Phoenix-Mesa-Scottsdale, AZ",6200.0,"PHOENIX-MESA, AZ",,,33.6364096,-112.18479350000001,Approximate,,,Drive-Thru Window,Wi-Fi
2000348827,51,Locations: Chain Restaurants,McDonald's,12700 Spine Rd,ATLANTA,GA,30320,Location,United States of America,4047618176.0,1000017996,McDonald's Corporation,CHICAGO,IL,60607,,,,,,,46220.0,13063.0,CLAYTON,12060.0,"Atlanta-Sandy Springs-Roswell, GA",520.0,"ATLANTA, GA",,,33.640744,-84.425223,Approximate,,,Drive-Thru Window,Wi-Fi
2000350272,51,Locations: Chain Restaurants,McDonald's,3200 E Airfield Dr,DALLAS,TX,75261,Location,United States of America,9722967290.0,1000017996,McDonald's Corporation,CHICAGO,IL,60607,,,,,,,51850.0,48113.0,DALLAS,19100.0,"Dallas-Fort Worth-Arlington, TX",1922.0,"DALLAS-FORT WORTH, TX",1920.0,"DALLAS, TX",32.8958852,-97.03612609999999,Approximate,,,Drive-Thru Window,Wi-Fi
1000927707,51,Locations: Chain Restaurants,McDonald's,1 Fleet St,BOSTON,MA,02136-2015,Location,United States of America,6177420198.0,1000017996,McDonald's Corporation,OAK BROOK,IL,60523-5500,,,,,,,50200.0,25025.0,SUFFOLK,14460.0,"Boston-Cambridge-Newton, MA-NH",1122.0,"BOSTON-WORCESTER-LAWRENCE, MA-NH-ME-CT",1120.0,"BOSTON, MA-NH",42.2528662,-71.1244583,Approximate,,,Drive-Thru Window,Wi-Fi
1000927977,51,Locations: Chain Restaurants,McDonald's,100 E Wallace Kneeland Blvd,SHELTON,WA,98584-2981,Location,United States of America,3604266759.0,1000017996,McDonald's Corporation,OAK BROOK,IL,60523-5500,,,,,,,46200.0,53045.0,MASON,43220.0,"Shelton, WA",,,,,47.23308,-123.12569440000001,Approximate,,,Drive-Thru Window,Wi-Fi
1000928013,51,Locations: Chain Restaurants,McDonald's,100 Main St,WHITE PLAINS,NY,10601-2612,Location,United States of America,9149467156.0,1000017996,McDonald's Corporation,OAK BROOK,IL,60523-5500,,,,,,,51870.0,36119.0,WESTCHESTER,35620.0,"New York-Newark-Jersey City, NY-NJ-PA",5602.0,"NEW YORK-NORTHERN NEW JERSEY-LONG ISLAND, NY-NJ-CT-PA",5600.0,"NEW YORK, NY",41.0336164,-73.76993540000001,Approximate,,,Drive-Thru Window,Wi-Fi
1000928055,51,Locations: Chain Restaurants,McDonald's,101 Nature Walk Pkwy,SAINT AUGUSTINE,FL,32092-5055,Location,United States of America,9042874131.0,1000017996,McDonald's Corporation,OAK BROOK,IL,60523-5500,,,,,,,47440.0,12109.0,SAINT JOHNS,27260.0,"Jacksonville, FL",3600.0,"JACKSONVILLE, FL",,,30.0576904,-81.5367273,Approximate,,,Drive-Thru Window,Wi-Fi
1000928122,51,Locations: Chain Restaurants,McDonald's,100 W Primm Blvd,PRIMM,NV,89019-7016,Location,United States of America,7028742317.0,1000017996,McDonald's Corporation,OAK BROOK,IL,60523-5500,,,,,,,46450.0,32003.0,CLARK,29820.0,"Las Vegas-Henderson-Paradise, NV",4120.0,"LAS VEGAS, NV-AZ",,,35.6117446,-115.392234,Approximate,,,Drive-Thru Window,Wi-Fi
1000928523,51,Locations: Chain Restaurants,McDonald's,101 L R Campbell Rd,ITALY,TX,76651-3780,Location,United States of America,9724836497.0,1000017996,McDonald's Corporation,OAK BROOK,IL,60523-5500,,,,,,,46110.0,48139.0,ELLIS,19100.0,"Dallas-Fort Worth-Arlington, TX",1922.0,"DALLAS-FORT WORTH, TX",1920.0,"DALLAS, TX",32.1970904,-96.89972990000001,Approximate,,,Drive-Thru Window,Wi-Fi
1000928761,51,Locations: Chain Restaurants,McDonald's,1015 S Cobb Dr SE,MARIETTA,GA,30060-3303,Location,United States of America,7704270834.0,1000017996,McDonald's Corporation,OAK BROOK,IL,60523-5500,,,,,,,49130.0,13067.0,COBB,12060.0,"Atlanta-Sandy Springs-Roswell, GA",520.0,"ATLANTA, GA",,,33.9282755,-84.55055259999999,Approximate,,,Drive-Thru Window,Wi-Fi
1000929087,51,Locations: Chain Restaurants,McDonald's,1030 Largo Center Dr,LARGO,MD,20774-3706,Location,United States of America,3014997241.0,1000017996,McDonald's Corporation,OAK BROOK,IL,60523-5500,,,,,,,50070.0,24033.0,PRINCE GEORGES,47900.0,"Washington-Arlington-Alexandria, DC-VA-MD-WV",8872.0,"WASHINGTON-BALTIMORE, DC-MD-VA-WV",8840.0,"WASHINGTON, DC-MD-VA-WV",38.9023159,-76.8364553,Approximate,,,Drive-Thru Window,Wi-Fi
1000929295,51,Locations: Chain Restaurants,McDonald's,10420 Maysville Rd,FORT WAYNE,IN,46835-9762,Location,United States of America,2604922354.0,1000017996,McDonald's Corporation,OAK BROOK,IL,60523-5500,,,,,,,47800.0,18003.0,ALLEN,23060.0,"Fort Wayne, IN",2760.0,"FORT WAYNE, IN",,,41.1282334,-85.0068426,Approximate,,,Drive-Thru Window,Wi-Fi
1000929690,51,Locations: Chain Restaurants,McDonald's,107 7th North St,LIVERPOOL,NY,13088-6719,Location,United States of America,3154241200.0,1000017996,McDonald's Corporation,OAK BROOK,IL,60523-5500,,,,,,,48850.0,36067.0,ONONDAGA,45060.0,"Syracuse, NY",8160.0,"SYRACUSE, NY",,,43.0869179,-76.16523829999998,Approximate,,,Drive-Thru Window,Wi-Fi
1000929723,51,Locations: Chain Restaurants,McDonald's,1070 N Huron River Dr,YPSILANTI,MI,48197-2350,Location,United States of America,7344810470.0,1000017996,McDonald's Corporation,OAK BROOK,IL,60523-5500,,,,,,,48480.0,26161.0,WASHTENAW,11460.0,"Ann Arbor, MI",2162.0,"DETROIT-ANN ARBOR-FLINT, MI",440.0,"ANN ARBOR, MI",42.256172799999995,-83.6283609,Approximate,,,Drive-Thru Window,Wi-Fi
1000930265,51,Locations: Chain Restaurants,McDonald's,1100 Thornton Rd,LITHIA SPRINGS,GA,30122-2616,Location,United States of America,7707399355.0,1000017996,McDonald's Corporation,OAK BROOK,IL,60523-5500,,,,,,,47600.0,13097.0,DOUGLAS,12060.0,"Atlanta-Sandy Springs-Roswell, GA",520.0,"ATLANTA, GA",,,33.7745724,-84.6011156,Approximate,,,Drive-Thru Window,Wi-Fi
1000930864,51,Locations: Chain Restaurants,McDonald's,11250 White Rock Rd,GOLD RIVER,CA,95670,Location,United States of America,9168582003.0,1000017996,McDonald's Corporation,OAK BROOK,IL,60523-5500,,,,,,,49920.0,6067.0,SACRAMENTO,40900.0,"Sacramento-Roseville-Arden-Arcade, CA",6922.0,"SACRAMENTO-YOLO, CA",6920.0,"SACRAMENTO, CA",38.589636999999996,-121.26485500000001,Approximate,,,Drive-Thru Window,Wi-Fi
1000931392,51,Locations: Chain Restaurants,McDonald's,1165 Walmart Way,RADCLIFF,KY,40160-1471,Location,United States of America,2703516229.0,1000017996,McDonald's Corporation,OAK BROOK,IL,60523-5500,,,,,,,46880.0,21093.0,HARDIN,21060.0,"Elizabethtown-Fort Knox, KY",,,,,37.849120500000005,-85.9419626,Approximate,,,Drive-Thru Window,Wi-Fi
1000931818,51,Locations: Chain Restaurants,McDonald's,120 S Broadway,PELICAN RAPIDS,MN,56572-4225,Location,United States of America,2188632455.0,1000017996,McDonald's Corporation,OAK BROOK,IL,60523-5500,,,,,,,45930.0,27111.0,OTTER TAIL,22260.0,"Fergus Falls, MN",,,,,46.56807379999999,-96.084129,Approximate,,,Drive-Thru Window,Wi-Fi
1000931970,51,Locations: Chain Restaurants,McDonald's,1201 Knox Ave,NORTH AUGUSTA,SC,29841-4056,Location,United States of America,8036130531.0,1000017996,McDonald's Corporation,OAK BROOK,IL,60523-5500,,,,,,,47260.0,45003.0,AIKEN,12260.0,"Augusta-Richmond County, GA-SC",600.0,"AUGUSTA-AIKEN, GA-SC",,,33.501287899999994,-81.95673640000001,Approximate,,,Drive-Thru Window,Wi-Fi
1000931871,51,Locations: Chain Restaurants,McDonald's,1200 E Jackson Ave,MCALLEN,TX,78503-1605,Location,United States of America,9566180580.0,1000017996,McDonald's Corporation,OAK BROOK,IL,60523-5500,,,,,,,49900.0,48215.0,HIDALGO,32580.0,"McAllen-Edinburg-Mission, TX",4880.0,"MCALLEN-EDINBURG-MISSION, TX",,,26.1883738,-98.20979390000001,Approximate,,,Drive-Thru Window,Wi-Fi
1000933500,51,Locations: Chain Restaurants,McDonald's,13032 State Highway 33,GUSTINE,CA,95322-9744,Location,United States of America,2098269205.0,1000017996,McDonald's Corporation,OAK BROOK,IL,60523-5500,,,,,,,45410.0,6047.0,MERCED,32900.0,"Merced, CA",4940.0,"MERCED, CA",,,37.100397799999996,-121.01517949999999,Approximate,,,Drive-Thru Window,Wi-Fi
1000933670,51,Locations: Chain Restaurants,McDonald's,1314 N Leroy St,FENTON,MI,48430-5309,Location,United States of America,8106294876.0,1000017996,McDonald's Corporation,OAK BROOK,IL,60523-5500,,,,,,,47150.0,26049.0,GENESEE,22420.0,"Flint, MI",2162.0,"DETROIT-ANN ARBOR-FLINT, MI",2640.0,"FLINT, MI",42.813069299999995,-83.7067135,Approximate,,,Drive-Thru Window,Wi-Fi
1000933616,51,Locations: Chain Restaurants,McDonald's,1310 USS Daniel Boone Ave,KINGS BAY,GA,31547-5000,Location,United States of America,9128822757.0,1000017996,McDonald's Corporation,OAK BROOK,IL,60523-5500,,,,,,,46440.0,13039.0,CAMDEN,41220.0,"St. Marys, GA",,,,,30.793209700000002,-81.5715953,Approximate,,,Drive-Thru Window,Wi-Fi
1000934842,51,Locations: Chain Restaurants,McDonald's,14124 Woodward Ave,HIGHLAND PARK,MI,48203-2995,Location,United States of America,3138650400.0,1000017996,McDonald's Corporation,OAK BROOK,IL,60523-5500,,,,,,,51390.0,26163.0,WAYNE,19820.0,"Detroit-Warren-Dearborn, MI",2162.0,"DETROIT-ANN ARBOR-FLINT, MI",2160.0,"DETROIT, MI",42.4087943,-83.09848640000001,Approximate,,,Drive-Thru Window,Wi-Fi
1000935378,51,Locations: Chain Restaurants,McDonald's,14550 Chase St,PANORAMA CITY,CA,91402-3684,Location,United States of America,8188955045.0,1000017996,McDonald's Corporation,OAK BROOK,IL,60523-5500,,,,,,,57490.0,6037.0,LOS ANGELES,31080.0,"Los Angeles-Long Beach-Anaheim, CA",4472.0,"LOS ANGELES-RIVERSIDE-ORANGE COUNTY, CA",4480.0,"LOS ANGELES-LONG BEACH, CA",34.224544099999996,-118.4497726,Approximate,,,Drive-Thru Window,Wi-Fi
1000935960,51,Locations: Chain Restaurants,McDonald's,1504 Taub Loop,HOUSTON,TX,77030-1608,Location,United States of America,7137991854.0,1000017996,McDonald's Corporation,OAK BROOK,IL,60523-5500,,,,,,,50920.0,48201.0,HARRIS,26420.0,"Houston-The Woodlands-Sugar Land, TX",3362.0,"HOUSTON-GALVESTON-BRAZORIA, TX",3360.0,"HOUSTON, TX",29.710577899999997,-95.39328929999999,Approximate,,,Drive-Thru Window,Wi-Fi
1000935507,51,Locations: Chain Restaurants,McDonald's,1475 Pearman Dairy Rd,ANDERSON,SC,29625-2081,Location,United States of America,8643759990.0,1000017996,McDonald's Corporation,OAK BROOK,IL,60523-5500,,,,,,,47380.0,45007.0,ANDERSON,24860.0,"Greenville-Anderson-Mauldin, SC",3160.0,"GREENVILLE-SPARTANBURG-ANDERSON, SC",,,34.529344,-82.6962362,Approximate,,,Drive-Thru Window,Wi-Fi
1000935727,51,Locations: Chain Restaurants,McDonald's,150 Cleveland Ave SW,ATLANTA,GA,30315-8206,Location,United States of America,4047667779.0,1000017996,McDonald's Corporation,OAK BROOK,IL,60523-5500,,,,,,,48500.0,13121.0,FULTON,12060.0,"Atlanta-Sandy Springs-Roswell, GA",520.0,"ATLANTA, GA",,,33.68066760000001,-84.3940115,Approximate,,,Drive-Thru Window,Wi-Fi
1000935733,51,Locations: Chain Restaurants,McDonald's,150 E Plaquemine Street Hwy 35,CHURCH POINT,LA,70525,Location,United States of America,3376840434.0,1000017996,McDonald's Corporation,OAK BROOK,IL,60523-5500,,,,,,,45810.0,22001.0,ACADIA,29180.0,"Lafayette, LA",3880.0,"LAFAYETTE, LA",,,30.409178700000002,-92.21817340000001,Approximate,,,Drive-Thru Window,Wi-Fi
1000936469,51,Locations: Chain Restaurants,McDonald's,155 Dorset St,SOUTH BURLINGTON,VT,05403-6283,Location,United States of America,8028627733.0,1000017996,McDonald's Corporation,OAK BROOK,IL,60523-5500,,,,,,,48000.0,50007.0,CHITTENDEN,15540.0,"Burlington-South Burlington, VT",1305.0,"BURLINGTON, VT",,,44.465466,-73.184434,Approximate,,,Drive-Thru Window,Wi-Fi
1000938492,51,Locations: Chain Restaurants,McDonald's,1750 SW Saint Lucie West Blvd,PORT SAINT LUCIE,FL,34986-2504,Location,United States of America,7728712600.0,1000017996,McDonald's Corporation,OAK BROOK,IL,60523-5500,,,,,,,47950.0,12111.0,SAINT LUCIE,38940.0,"Port St. Lucie, FL",2710.0,"FORT PIERCE-PORT SAINT LUCIE, FL",,,27.310863,-80.4054965,Approximate,,,Drive-Thru Window,Wi-Fi
1000938652,51,Locations: Chain Restaurants,McDonald's,178 Border St,EAST BOSTON,MA,02128-1618,Location,United States of America,6175679374.0,1000017996,McDonald's Corporation,OAK BROOK,IL,60523-5500,,,,,,,53760.0,25025.0,SUFFOLK,14460.0,"Boston-Cambridge-Newton, MA-NH",1122.0,"BOSTON-WORCESTER-LAWRENCE, MA-NH-ME-CT",1120.0,"BOSTON, MA-NH",42.37445039999999,-71.0402535,Approximate,,,Drive-Thru Window,Wi-Fi
1000938077,51,Locations: Chain Restaurants,McDonald's,171 Burgess Rd,HARRISONBURG,VA,22801-3704,Location,United States of America,5404332088.0,1000017996,McDonald's Corporation,OAK BROOK,IL,60523-5500,,,,,,,47720.0,51660.0,HARRISONBURG CITY,25500.0,"Harrisonburg, VA",,,,,38.435262,-78.85305600000001,Approximate,,,Drive-Thru Window,Wi-Fi
1000938687,51,Locations: Chain Restaurants,McDonald's,17850 Garland Groh Blvd,HAGERSTOWN,MD,21740-1944,Location,United States of America,3017919359.0,1000017996,McDonald's Corporation,OAK BROOK,IL,60523-5500,,,,,,,46680.0,24043.0,WASHINGTON,25180.0,"Hagerstown-Martinsburg, MD-WV",8872.0,"WASHINGTON-BALTIMORE, DC-MD-VA-WV",3180.0,"HAGERSTOWN, MD",39.658074799999994,-77.7492556,Approximate,,,Drive-Thru Window,Wi-Fi
1000938859,51,Locations: Chain Restaurants,McDonald's,1815 Elizabethtown Rd,LEITCHFIELD,KY,42754-9138,Location,United States of America,2702300774.0,1000017996,McDonald's Corporation,OAK BROOK,IL,60523-5500,,,,,,,45940.0,21085.0,GRAYSON,,,,,,,37.487837,-86.2642006,Rooftop,,,Drive-Thru Window,Wi-Fi
1000938520,51,Locations: Chain Restaurants,McDonald's,1753 Central Park Ave,YONKERS,NY,10710-2828,Location,United States of America,9142229445.0,1000017996,McDonald's Corporation,OAK BROOK,IL,60523-5500,,,,,,,52070.0,36119.0,WESTCHESTER,35620.0,"New York-Newark-Jersey City, NY-NJ-PA",5602.0,"NEW YORK-NORTHERN NEW JERSEY-LONG ISLAND, NY-NJ-CT-PA",5600.0,"NEW YORK, NY",40.959564,-73.842476,Approximate,,,Drive-Thru Window,Wi-Fi
1000939441,51,Locations: Chain Restaurants,McDonald's,18700 Highway 105 W,MONTGOMERY,TX,77356-5625,Location,United States of America,9365820984.0,1000017996,McDonald's Corporation,OAK BROOK,IL,60523-5500,,,,,,,48170.0,48339.0,MONTGOMERY,26420.0,"Houston-The Woodlands-Sugar Land, TX",3362.0,"HOUSTON-GALVESTON-BRAZORIA, TX",3360.0,"HOUSTON, TX",30.384341999999997,-95.65039499999999,Approximate,,,Drive-Thru Window,Wi-Fi
1000939817,51,Locations: Chain Restaurants,McDonald's,1912 E Higgins Rd,ELK GROVE VLG,IL,60007-2503,Location,United States of America,8474377949.0,1000017996,McDonald's Corporation,OAK BROOK,IL,60523-5500,,,,,,,50470.0,17031.0,COOK,16980.0,"Chicago-Naperville-Elgin, IL-IN-WI",1602.0,"CHICAGO-GARY-KENOSHA, IL-IN-WI",1600.0,"CHICAGO, IL",42.0218172,-87.9571907,Approximate,,,Drive-Thru Window,Wi-Fi
1000939839,51,Locations: Chain Restaurants,McDonald's,1915 W Main St,SAINT CHARLES,IL,60174-1635,Location,United States of America,6303777445.0,1000017996,McDonald's Corporation,OAK BROOK,IL,60523-5500,,,,,,,49980.0,17089.0,KANE,16980.0,"Chicago-Naperville-Elgin, IL-IN-WI",1602.0,"CHICAGO-GARY-KENOSHA, IL-IN-WI",1600.0,"CHICAGO, IL",41.9122677,-88.33784809999999,Approximate,,,Drive-Thru Window,Wi-Fi
1000940584,51,Locations: Chain Restaurants,McDonald's,200 NE 167th St,NORTH MIAMI BEACH,FL,33162-2301,Location,United States of America,3059402092.0,1000017996,McDonald's Corporation,OAK BROOK,IL,60523-5500,,,,,,,56380.0,12086.0,MIAMI-DADE,33100.0,"Miami-Fort Lauderdale-West Palm Beach, FL",4992.0,"MIAMI-FORT LAUDERDALE, FL",5000.0,"MIAMI, FL",25.927843,-80.195911,Approximate,,,Drive-Thru Window,Wi-Fi
1000940606,51,Locations: Chain Restaurants,McDonald's,200 S College St,CHARLOTTE,NC,28202-2016,Location,United States of America,7043334478.0,1000017996,McDonald's Corporation,OAK BROOK,IL,60523-5500,,,,,,,50380.0,37119.0,MECKLENBURG,16740.0,"Charlotte-Concord-Gastonia, NC-SC",1520.0,"CHARLOTTE-GASTONIA-ROCK HILL, NC-SC",,,35.225338,-80.843726,Approximate,,,Drive-Thru Window,Wi-Fi
1000941193,51,Locations: Chain Restaurants,McDonald's,2033 S Broad St,PHILADELPHIA,PA,19148-5505,Location,United States of America,2154622294.0,1000017996,McDonald's Corporation,OAK BROOK,IL,60523-5500,,,,,,,53420.0,42101.0,PHILADELPHIA,37980.0,"Philadelphia-Camden-Wilmington, PA-NJ-DE-MD",6162.0,"PHILADELPHIA-WILMINGTON-ATLANTIC CITY, PA-NJ-DE-MD",6160.0,"PHILADELPHIA, PA-NJ",39.924614,-75.169415,Approximate,,,Drive-Thru Window,Wi-Fi
1000940041,51,Locations: Chain Restaurants,McDonald's,1940 Venture Dr,OTTUMWA,IA,52501-3766,Location,United States of America,6416820213.0,1000017996,McDonald's Corporation,OAK BROOK,IL,60523-5500,,,,,,,46020.0,19179.0,WAPELLO,36900.0,"Ottumwa, IA",,,,,41.01243839999999,-92.4553853,Approximate,,,Drive-Thru Window,Wi-Fi
1000941897,51,Locations: Chain Restaurants,McDonald's,211 4th St,ALEXANDRIA,LA,71301-8421,Location,United States of America,3185619789.0,1000017996,McDonald's Corporation,OAK BROOK,IL,60523-5500,,,,,,,47340.0,22079.0,RAPIDES,10780.0,"Alexandria, LA",220.0,"ALEXANDRIA, LA",,,31.3151298,-92.4497259,Approximate,,,Drive-Thru Window,Wi-Fi
1000940674,51,Locations: Chain Restaurants,McDonald's,2000 John Harden Dr,JACKSONVILLE,AR,72076-2730,Location,United States of America,5012410465.0,1000017996,McDonald's Corporation,OAK BROOK,IL,60523-5500,,,,,,,46800.0,5119.0,PULASKI,30780.0,"Little Rock-North Little Rock-Conway, AR",4400.0,"LITTLE ROCK-NORTH LITTLE ROCK, AR",,,34.8846526,-92.1125507,Approximate,,,Drive-Thru Window,Wi-Fi
1000940684,51,Locations: Chain Restaurants,McDonald's,2000 Riverchase Galleria,HOOVER,AL,35244-2308,Location,United States of America,2054441405.0,1000017996,McDonald's Corporation,OAK BROOK,IL,60523-5500,,,,,,,49590.0,1073.0,JEFFERSON,13820.0,"Birmingham-Hoover, AL",1000.0,"BIRMINGHAM, AL",,,33.3791691,-86.80853,Approximate,,,Drive-Thru Window,Wi-Fi
1000942560,51,Locations: Chain Restaurants,McDonald's,2200 Briarcrest Dr,BRYAN,TX,77802-5000,Location,United States of America,9797740074.0,1000017996,McDonald's Corporation,OAK BROOK,IL,60523-5500,,,,,,,48990.0,48041.0,BRAZOS,17780.0,"College Station-Bryan, TX",1260.0,"BRYAN-COLLEGE STATION, TX",,,30.6574109,-96.3304049,Approximate,,,Drive-Thru Window,Wi-Fi
1000943087,51,Locations: Chain Restaurants,McDonald's,2251 Century Dr,WEST MIFFLIN,PA,15122-2465,Location,United States of America,4126558825.0,1000017996,McDonald's Corporation,OAK BROOK,IL,60523-5500,,,,,,,47730.0,42003.0,ALLEGHENY,38300.0,"Pittsburgh, PA",6280.0,"PITTSBURGH, PA",,,40.341795,-79.9465589,Approximate,,,Drive-Thru Window,Wi-Fi
1000941572,51,Locations: Chain Restaurants,McDonald's,2084 Florence Mall,FLORENCE,KY,41042-1443,Location,United States of America,8592821713.0,1000017996,McDonald's Corporation,OAK BROOK,IL,60523-5500,,,,,,,47960.0,21015.0,BOONE,17140.0,"Cincinnati, OH-KY-IN",1642.0,"CINCINNATI-HAMILTON, OH-KY-IN",1640.0,"CINCINNATI, OH-KY-IN",38.9957251,-84.6502858,Approximate,,,,
1000941687,51,Locations: Chain Restaurants,McDonald's,21 S 3rd St,NEWARK,OH,43055-5527,Location,United States of America,7403458557.0,1000017996,McDonald's Corporation,OAK BROOK,IL,60523-5500,,,,,,,47590.0,39089.0,LICKING,18140.0,"Columbus, OH",1840.0,"COLUMBUS, OH",,,40.057041,-82.40252,Approximate,,,Drive-Thru Window,Wi-Fi
1000942793,51,Locations: Chain Restaurants,McDonald's,221E NE 104th Ave,VANCOUVER,WA,98664-4599,Location,United States of America,3608824082.0,1000017996,McDonald's Corporation,OAK BROOK,IL,60523-5500,,,,,,,49340.0,53011.0,CLARK,38900.0,"Portland-Vancouver-Hillsboro, OR-WA",6442.0,"PORTLAND-SALEM, OR-WA",6440.0,"PORTLAND-VANCOUVER, OR-WA",45.623909000000005,-122.56224270000001,Approximate,,,Drive-Thru Window,Wi-Fi
1000945152,51,Locations: Chain Restaurants,McDonald's,2592 N Columbia St,MILLEDGEVILLE,GA,31061-8709,Location,United States of America,4784539499.0,1000017996,McDonald's Corporation,OAK BROOK,IL,60523-5500,,,,,,,46570.0,13009.0,BALDWIN,33300.0,"Milledgeville, GA",,,,,33.116265999999996,-83.265252,Approximate,,,Drive-Thru Window,Wi-Fi
1000945383,51,Locations: Chain Restaurants,McDonald's,2620 W 95th St,EVERGREEN PARK,IL,60805-2700,Location,United States of America,7084991636.0,1000017996,McDonald's Corporation,OAK BROOK,IL,60523-5500,,,,,,,50180.0,17031.0,COOK,16980.0,"Chicago-Naperville-Elgin, IL-IN-WI",1602.0,"CHICAGO-GARY-KENOSHA, IL-IN-WI",1600.0,"CHICAGO, IL",41.72146,-87.68764499999999,Approximate,,,Drive-Thru Window,Wi-Fi
1000943690,51,Locations: Chain Restaurants,McDonald's,2345 Happy Valley Rd,GLASGOW,KY,42141-8076,Location,United States of America,2706789280.0,1000017996,McDonald's Corporation,OAK BROOK,IL,60523-5500,,,,,,,46390.0,21009.0,BARREN,23980.0,"Glasgow, KY",,,,,37.0209294,-85.9377059,Approximate,,,Drive-Thru Window,Wi-Fi
1000943850,51,Locations: Chain Restaurants,McDonald's,23861 Bridger Rd,EL TORO,CA,92630-3712,Location,United States of America,9497682976.0,1000017996,McDonald's Corporation,OAK BROOK,IL,60523-5500,,,,,,,56990.0,6059.0,ORANGE,31080.0,"Los Angeles-Long Beach-Anaheim, CA",4472.0,"LOS ANGELES-RIVERSIDE-ORANGE COUNTY, CA",5945.0,ORANGE COUNTY,33.6159506,-117.7078906,Approximate,,,Drive-Thru Window,Wi-Fi
1000945802,51,Locations: Chain Restaurants,McDonald's,2702 N Salisbury Blvd,SALISBURY,MD,21801-2143,Location,United States of America,4103417635.0,1000017996,McDonald's Corporation,OAK BROOK,IL,60523-5500,,,,,,,47170.0,24045.0,WICOMICO,41540.0,"Salisbury, MD-DE",,,,,38.4173927,-75.5692005,Approximate,,,Drive-Thru Window,Wi-Fi
1000944375,51,Locations: Chain Restaurants,McDonald's,2460 State St,BETTENDORF,IA,52722-5037,Location,United States of America,5633594776.0,1000017996,McDonald's Corporation,OAK BROOK,IL,60523-5500,,,,,,,48850.0,19163.0,SCOTT,19340.0,"Davenport-Moline-Rock Island, IA-IL",1960.0,"DAVENPORT-MOLINE-ROCK ISLAND, IA-IL",,,41.5260076,-90.49901779999999,Approximate,,,Drive-Thru Window,Wi-Fi
1000944840,51,Locations: Chain Restaurants,McDonald's,2525 Market St,YOUNGSTOWN,OH,44507-1436,Location,United States of America,3307826225.0,1000017996,McDonald's Corporation,OAK BROOK,IL,60523-5500,,,,,,,47760.0,39099.0,MAHONING,49660.0,"Youngstown-Warren-Boardman, OH-PA",9320.0,"YOUNGSTOWN-WARREN, OH",,,41.0746079,-80.6566882,Approximate,,,Drive-Thru Window,Wi-Fi
1000945156,51,Locations: Chain Restaurants,McDonald's,2595 E Imperial Hwy,BREA,CA,92821-6106,Location,United States of America,7145293760.0,1000017996,McDonald's Corporation,OAK BROOK,IL,60523-5500,,,,,,,52840.0,6059.0,ORANGE,31080.0,"Los Angeles-Long Beach-Anaheim, CA",4472.0,"LOS ANGELES-RIVERSIDE-ORANGE COUNTY, CA",5945.0,ORANGE COUNTY,33.913515999999994,-117.86529499999999,Approximate,,,Drive-Thru Window,Wi-Fi
1000947197,51,Locations: Chain Restaurants,McDonald's,3 Cotton Rd & Amherst St,NASHUA,NH,3060,Location,United States of America,6035984475.0,1000017996,McDonald's Corporation,OAK BROOK,IL,60523-5500,,,,,,,49070.0,33011.0,HILLSBOROUGH,31700.0,"Manchester-Nashua, NH",1122.0,"BOSTON-WORCESTER-LAWRENCE, MA-NH-ME-CT",4560.0,"LOWELL, MA-NH",42.7840689,-71.507583,Approximate,,,Drive-Thru Window,Wi-Fi
1000947474,51,Locations: Chain Restaurants,McDonald's,3002 Stacy Allison Way,WOODBURN,OR,97071-2904,Location,United States of America,5039821385.0,1000017996,McDonald's Corporation,OAK BROOK,IL,60523-5500,,,,,,,46630.0,41047.0,MARION,41420.0,"Salem, OR",6442.0,"PORTLAND-SALEM, OR-WA",7080.0,"SALEM, OR",45.147838899999996,-122.88005290000001,Approximate,,,Drive-Thru Window,Wi-Fi
1000946065,51,Locations: Chain Restaurants,McDonald's,275 Railroad St,SAINT JOHNSBURY,VT,05819-1615,Location,United States of America,8027488077.0,1000017996,McDonald's Corporation,OAK BROOK,IL,60523-5500,,,,,,,46200.0,50005.0,CALEDONIA,,,,,,,44.41663,-72.0165423,Approximate,,,Drive-Thru Window,Wi-Fi
1000947985,51,Locations: Chain Restaurants,McDonald's,30830 Old US 20,ELKHART,IN,46514-9481,Location,United States of America,5746750157.0,1000017996,McDonald's Corporation,OAK BROOK,IL,60523-5500,,,,,,,47570.0,18039.0,ELKHART,21140.0,"Elkhart-Goshen, IN",2330.0,"ELKHART-GOSHEN, IN",,,41.686712,-86.058462,Approximate,,,Drive-Thru Window,Wi-Fi
1000946318,51,Locations: Chain Restaurants,McDonald's,2800 S Lynnhaven Rd,VIRGINIA BEACH,VA,23452-6768,Location,United States of America,7574983236.0,1000017996,McDonald's Corporation,OAK BROOK,IL,60523-5500,,,,,,,50710.0,51810.0,VIRGINIA BEACH CITY,47260.0,"Virginia Beach-Norfolk-Newport News, VA-NC",5720.0,"NORFOLK-VIRGINIA BEACH-NEWPORT NEWS, VA-NC",,,36.8337545,-76.06812959999999,Approximate,,,Drive-Thru Window,Wi-Fi
1000946750,51,Locations: Chain Restaurants,McDonald's,29 N Wacker Dr,CHICAGO,IL,60606-3208,Location,United States of America,3124564307.0,1000017996,McDonald's Corporation,OAK BROOK,IL,60523-5500,,,,,,,55980.0,17031.0,COOK,16980.0,"Chicago-Naperville-Elgin, IL-IN-WI",1602.0,"CHICAGO-GARY-KENOSHA, IL-IN-WI",1600.0,"CHICAGO, IL",41.883047999999995,-87.636656,Approximate,,,Drive-Thru Window,Wi-Fi
1000948864,51,Locations: Chain Restaurants,McDonald's,3220 26th St N,BIRMINGHAM,AL,35207-4506,Location,United States of America,2053248945.0,1000017996,McDonald's Corporation,OAK BROOK,IL,60523-5500,,,,,,,46680.0,1073.0,JEFFERSON,13820.0,"Birmingham-Hoover, AL",1000.0,"BIRMINGHAM, AL",,,33.554297399999996,-86.81957109999999,Approximate,,,Drive-Thru Window,Wi-Fi
1000947200,51,Locations: Chain Restaurants,McDonald's,3 Fayette Ave,BELLE VERNON,PA,15012-1666,Location,United States of America,7249290113.0,1000017996,McDonald's Corporation,OAK BROOK,IL,60523-5500,,,,,,,46850.0,42051.0,FAYETTE,38300.0,"Pittsburgh, PA",6280.0,"PITTSBURGH, PA",,,40.1341807,-79.8616267,Approximate,,,Drive-Thru Window,Wi-Fi
1000947750,51,Locations: Chain Restaurants,McDonald's,3034 Rhea County Hwy,DAYTON,TN,37321-5806,Location,United States of America,4235700111.0,1000017996,McDonald's Corporation,OAK BROOK,IL,60523-5500,,,,,,,46070.0,47143.0,RHEA,19420.0,"Dayton, TN",,,,,35.4603839,-85.0438772,Approximate,,,Drive-Thru Window,Wi-Fi
1000947826,51,Locations: Chain Restaurants,McDonald's,305 S Main St,ALPHARETTA,GA,30009-1915,Location,United States of America,7704421085.0,1000017996,McDonald's Corporation,OAK BROOK,IL,60523-5500,,,,,,,49640.0,13121.0,FULTON,12060.0,"Atlanta-Sandy Springs-Roswell, GA",520.0,"ATLANTA, GA",,,34.067887299999995,-84.3022585,Approximate,,,Drive-Thru Window,Wi-Fi
1000949705,51,Locations: Chain Restaurants,McDonald's,340 Route 72 E,MANAHAWKIN,NJ,08050-3536,Location,United States of America,6095974841.0,1000017996,McDonald's Corporation,OAK BROOK,IL,60523-5500,,,,,,,47990.0,34029.0,OCEAN,35620.0,"New York-Newark-Jersey City, NY-NJ-PA",5602.0,"NEW YORK-NORTHERN NEW JERSEY-LONG ISLAND, NY-NJ-CT-PA",5190.0,"MONMOUTH-OCEAN, NJ",39.6871299,-74.24965379999999,Approximate,,,Drive-Thru Window,Wi-Fi
1000949825,51,Locations: Chain Restaurants,McDonald's,3423 Amnicola Hwy,CHATTANOOGA,TN,37406-1711,Location,United States of America,4236988400.0,1000017996,McDonald's Corporation,OAK BROOK,IL,60523-5500,,,,,,,47380.0,47065.0,HAMILTON,16860.0,"Chattanooga, TN-GA",1560.0,"CHATTANOOGA, TN-GA",,,35.0825574,-85.2640437,Approximate,,,Drive-Thru Window,Wi-Fi
1000948387,51,Locations: Chain Restaurants,McDonald's,31350 Michigan Ave,WESTLAND,MI,48186-9599,Location,United States of America,7343260230.0,1000017996,McDonald's Corporation,OAK BROOK,IL,60523-5500,,,,,,,49970.0,26163.0,WAYNE,19820.0,"Detroit-Warren-Dearborn, MI",2162.0,"DETROIT-ANN ARBOR-FLINT, MI",2160.0,"DETROIT, MI",42.286230700000004,-83.3478038,Approximate,,,Drive-Thru Window,Wi-Fi
1000950400,51,Locations: Chain Restaurants,McDonald's,355 Walmart Dr,UNIONTOWN,PA,15401-8424,Location,United States of America,7244300320.0,1000017996,McDonald's Corporation,OAK BROOK,IL,60523-5500,,,,,,,46600.0,42051.0,FAYETTE,38300.0,"Pittsburgh, PA",6280.0,"PITTSBURGH, PA",,,39.91437,-79.756723,Approximate,,,Drive-Thru Window,Wi-Fi
1000948732,51,Locations: Chain Restaurants,McDonald's,3201 E 96th St,INDIANAPOLIS,IN,46240-1433,Location,United States of America,3175807795.0,1000017996,McDonald's Corporation,OAK BROOK,IL,60523-5500,,,,,,,50470.0,18097.0,MARION,26900.0,"Indianapolis-Carmel-Anderson, IN",3480.0,"INDIANAPOLIS, IN",,,39.926443,-86.111168,Approximate,,,Drive-Thru Window,Wi-Fi
1000949168,51,Locations: Chain Restaurants,McDonald's,330 Elden St,HERNDON,VA,20170-4818,Location,United States of America,7034645795.0,1000017996,McDonald's Corporation,OAK BROOK,IL,60523-5500,,,,,,,52980.0,51059.0,FAIRFAX,47900.0,"Washington-Arlington-Alexandria, DC-VA-MD-WV",8872.0,"WASHINGTON-BALTIMORE, DC-MD-VA-WV",8840.0,"WASHINGTON, DC-MD-VA-WV",38.967980299999994,-77.3741233,Approximate,,,Drive-Thru Window,Wi-Fi
1000951204,51,Locations: Chain Restaurants,McDonald's,3795 Buford Dr,BUFORD,GA,30519-4906,Location,United States of America,6785469227.0,1000017996,McDonald's Corporation,OAK BROOK,IL,60523-5500,,,,,,,47390.0,13135.0,GWINNETT,12060.0,"Atlanta-Sandy Springs-Roswell, GA",520.0,"ATLANTA, GA",,,34.088914700000004,-83.98996890000001,Approximate,,,Drive-Thru Window,Wi-Fi
1000949828,51,Locations: Chain Restaurants,McDonald's,920 Windy Hill Rd SE,SMYRNA,GA,30080-2004,Location,United States of America,7704349613.0,1000017996,McDonald's Corporation,OAK BROOK,IL,60523-5500,,,,,,,50090.0,13067.0,COBB,12060.0,"Atlanta-Sandy Springs-Roswell, GA",520.0,"ATLANTA, GA",,,33.8938813,-84.5262685,Approximate,,,Drive-Thru Window,Wi-Fi
1000949980,51,Locations: Chain Restaurants,McDonald's,3454 Wilshire Blvd,LOS ANGELES,CA,90010-2204,Location,United States of America,2133802824.0,1000017996,McDonald's Corporation,OAK BROOK,IL,60523-5500,,,,,,,60640.0,6037.0,LOS ANGELES,31080.0,"Los Angeles-Long Beach-Anaheim, CA",4472.0,"LOS ANGELES-RIVERSIDE-ORANGE COUNTY, CA",4480.0,"LOS ANGELES-LONG BEACH, CA",34.0614066,-118.29983,Approximate,,,Drive-Thru Window,Wi-Fi
1000950141,51,Locations: Chain Restaurants,McDonald's,350 N Milwaukee St,BOISE,ID,83704-9154,Location,United States of America,2083757707.0,1000017996,McDonald's Corporation,OAK BROOK,IL,60523-5500,,,,,,,49190.0,16001.0,ADA,14260.0,"Boise City, ID",1080.0,"BOISE CITY, ID",,,43.6074134,-116.27863329999998,Approximate,,,Drive-Thru Window,Wi-Fi
1000950771,51,Locations: Chain Restaurants,McDonald's,3650 W Martin Luther King Jr Blvd,LOS ANGELES,CA,90008-1700,Location,United States of America,3232946500.0,1000017996,McDonald's Corporation,OAK BROOK,IL,60523-5500,,,,,,,54500.0,6037.0,LOS ANGELES,31080.0,"Los Angeles-Long Beach-Anaheim, CA",4472.0,"LOS ANGELES-RIVERSIDE-ORANGE COUNTY, CA",4480.0,"LOS ANGELES-LONG BEACH, CA",34.01038629999999,-118.336176,Approximate,,,Drive-Thru Window,Wi-Fi
1000953834,51,Locations: Chain Restaurants,McDonald's,4402 50th St,LUBBOCK,TX,79414-3610,Location,United States of America,8067854223.0,1000017996,McDonald's Corporation,OAK BROOK,IL,60523-5500,,,,,,,51620.0,48303.0,LUBBOCK,31180.0,"Lubbock, TX",4600.0,"LUBBOCK, TX",,,33.5492435,-101.90554399999999,Approximate,,,Drive-Thru Window,Wi-Fi
1000951887,51,Locations: Chain Restaurants,McDonald's,3990 Nesconset Hwy,SETAUKET,NY,11733-3334,Location,United States of America,6313310081.0,1000017996,McDonald's Corporation,OAK BROOK,IL,60523-5500,,,,,,,51140.0,36103.0,SUFFOLK,35620.0,"New York-Newark-Jersey City, NY-NJ-PA",5602.0,"NEW YORK-NORTHERN NEW JERSEY-LONG ISLAND, NY-NJ-CT-PA",5380.0,"NASSAU-SUFFOLK, NY",40.9029524,-73.07820809999998,Approximate,,,Drive-Thru Window,Wi-Fi
1000951896,51,Locations: Chain Restaurants,McDonald's,3996 Jeffco Blvd,ARNOLD,MO,63010-4814,Location,United States of America,6364644312.0,1000017996,McDonald's Corporation,OAK BROOK,IL,60523-5500,,,,,,,48210.0,29099.0,JEFFERSON,41180.0,"St. Louis, MO-IL",7040.0,"SAINT LOUIS, MO-IL",,,38.4057619,-90.3768129,Approximate,,,Drive-Thru Window,Wi-Fi
1000955602,51,Locations: Chain Restaurants,McDonald's,5 S Broadway,YONKERS,NY,10701-3707,Location,United States of America,9149667294.0,1000017996,McDonald's Corporation,OAK BROOK,IL,60523-5500,,,,,,,50310.0,36119.0,WESTCHESTER,35620.0,"New York-Newark-Jersey City, NY-NJ-PA",5602.0,"NEW YORK-NORTHERN NEW JERSEY-LONG ISLAND, NY-NJ-CT-PA",5600.0,"NEW YORK, NY",40.9283096,-73.8966072,Approximate,,,Drive-Thru Window,Wi-Fi
1000955635,51,Locations: Chain Restaurants,McDonald's,50 Fox Run Rd,NEWINGTON,NH,03801-2857,Location,United States of America,6034311559.0,1000017996,McDonald's Corporation,OAK BROOK,IL,60523-5500,,,,,,,47300.0,33015.0,ROCKINGHAM,14460.0,"Boston-Cambridge-Newton, MA-NH",1122.0,"BOSTON-WORCESTER-LAWRENCE, MA-NH-ME-CT",1120.0,"BOSTON, MA-NH",43.097109499999995,-70.80499909999999,Approximate,,,Drive-Thru Window,Wi-Fi
1000955952,51,Locations: Chain Restaurants,McDonald's,502 Bellis Fair Pkwy,BELLINGHAM,WA,98226,Location,United States of America,3607340603.0,1000017996,McDonald's Corporation,OAK BROOK,IL,60523-5500,,,,,,,48630.0,53073.0,WHATCOM,13380.0,"Bellingham, WA",860.0,"BELLINGHAM, WA",,,48.7852722,-122.4895012,Approximate,,,Drive-Thru Window,Wi-Fi
1000954019,51,Locations: Chain Restaurants,McDonald's,445 S Wickham Rd,MELBOURNE,FL,32904-1137,Location,United States of America,3217265858.0,1000017996,McDonald's Corporation,OAK BROOK,IL,60523-5500,,,,,,,47980.0,12009.0,BREVARD,37340.0,"Palm Bay-Melbourne-Titusville, FL",4900.0,"MELBOURNE-TITUSVILLE-PALM BAY, FL",,,28.100152299999998,-80.6721474,Approximate,,,Drive-Thru Window,Wi-Fi
1000956437,51,Locations: Chain Restaurants,McDonald's,515 E 4th St,WATKINS GLEN,NY,14891-1218,Location,United States of America,6075356119.0,1000017996,McDonald's Corporation,OAK BROOK,IL,60523-5500,,,,,,,46270.0,36097.0,SCHUYLER,,,,,,,42.380714399999995,-76.86340240000001,Approximate,,,Drive-Thru Window,Wi-Fi
1000956497,51,Locations: Chain Restaurants,McDonald's,516 School House Rd,KENNETT SQUARE,PA,19348-1742,Location,United States of America,6109252578.0,1000017996,McDonald's Corporation,OAK BROOK,IL,60523-5500,,,,,,,48600.0,42029.0,CHESTER,37980.0,"Philadelphia-Camden-Wilmington, PA-NJ-DE-MD",6162.0,"PHILADELPHIA-WILMINGTON-ATLANTIC CITY, PA-NJ-DE-MD",6160.0,"PHILADELPHIA, PA-NJ",39.8611394,-75.69008620000001,Approximate,,,Drive-Thru Window,Wi-Fi
1000956677,51,Locations: Chain Restaurants,McDonald's,5219 Frankford Ave,PHILADELPHIA,PA,19124-1910,Location,United States of America,2152880979.0,1000017996,McDonald's Corporation,OAK BROOK,IL,60523-5500,,,,,,,52650.0,42101.0,PHILADELPHIA,37980.0,"Philadelphia-Camden-Wilmington, PA-NJ-DE-MD",6162.0,"PHILADELPHIA-WILMINGTON-ATLANTIC CITY, PA-NJ-DE-MD",6160.0,"PHILADELPHIA, PA-NJ",40.022613,-75.07762199999999,Approximate,,,Drive-Thru Window,Wi-Fi
1000956688,51,Locations: Chain Restaurants,McDonald's,5220 Buford Hwy NE,DORAVILLE,GA,30340-1107,Location,United States of America,7704573210.0,1000017996,McDonald's Corporation,OAK BROOK,IL,60523-5500,,,,,,,51340.0,13089.0,DEKALB,12060.0,"Atlanta-Sandy Springs-Roswell, GA",520.0,"ATLANTA, GA",,,33.895564,-84.2833944,Approximate,,,Drive-Thru Window,Wi-Fi
1000956908,51,Locations: Chain Restaurants,McDonald's,5300 San Dario Ave,LAREDO,TX,78041-3000,Location,United States of America,9567910015.0,1000017996,McDonald's Corporation,OAK BROOK,IL,60523-5500,,,,,,,47440.0,48479.0,WEBB,29700.0,"Laredo, TX",4080.0,"LAREDO, TX",,,27.551125,-99.50139200000001,Approximate,,,Drive-Thru Window,Wi-Fi
1000957377,51,Locations: Chain Restaurants,McDonald's,549 Clairton Blvd,PLEASANT HILLS,PA,15236-3809,Location,United States of America,4126536012.0,1000017996,McDonald's Corporation,OAK BROOK,IL,60523-5500,,,,,,,48120.0,42003.0,ALLEGHENY,38300.0,"Pittsburgh, PA",6280.0,"PITTSBURGH, PA",,,40.3317195,-79.9453816,Approximate,,,Drive-Thru Window,Wi-Fi
1000955643,51,Locations: Chain Restaurants,McDonald's,50 Independence Way,DANVERS,MA,1923,Location,United States of America,9787774331.0,1000017996,McDonald's Corporation,OAK BROOK,IL,60523-5500,,,,,,,49730.0,25009.0,ESSEX,14460.0,"Boston-Cambridge-Newton, MA-NH",1122.0,"BOSTON-WORCESTER-LAWRENCE, MA-NH-ME-CT",1120.0,"BOSTON, MA-NH",42.553508,-70.939844,Approximate,,,Drive-Thru Window,Wi-Fi
1000957783,51,Locations: Chain Restaurants,McDonald's,561 Yopp Rd,JACKSONVILLE,NC,28540-3591,Location,United States of America,9109379750.0,1000017996,McDonald's Corporation,OAK BROOK,IL,60523-5500,,,,,,,46420.0,37133.0,ONSLOW,27340.0,"Jacksonville, NC",3605.0,"JACKSONVILLE, NC",,,34.7514155,-77.4645513,Approximate,,,Drive-Thru Window,Wi-Fi
1000955995,51,Locations: Chain Restaurants,McDonald's,5015 Shelbyville Rd,SAINT MATTHEWS,KY,40207-3309,Location,United States of America,5028962637.0,1000017996,McDonald's Corporation,OAK BROOK,IL,60523-5500,,,,,,,51880.0,21111.0,JEFFERSON,31140.0,"Louisville/Jefferson County, KY-IN",4520.0,"LOUISVILLE, KY-IN",,,38.250589399999996,-85.621617,Approximate,,,Drive-Thru Window,Wi-Fi
1000958018,51,Locations: Chain Restaurants,McDonald's,5710 McFarland Blvd,NORTHPORT,AL,35476-3539,Location,United States of America,2053399881.0,1000017996,McDonald's Corporation,OAK BROOK,IL,60523-5500,,,,,,,47190.0,1125.0,TUSCALOOSA,46220.0,"Tuscaloosa, AL",8600.0,"TUSCALOOSA, AL",,,33.2364484,-87.6152196,Approximate,,,Drive-Thru Window,Wi-Fi
1000958143,51,Locations: Chain Restaurants,McDonald's,577 N Germantown Pkwy,CORDOVA,TN,38018-6211,Location,United States of America,9017531047.0,1000017996,McDonald's Corporation,OAK BROOK,IL,60523-5500,,,,,,,50350.0,47157.0,SHELBY,32820.0,"Memphis, TN-MS-AR",4920.0,"MEMPHIS, TN-AR-MS",,,35.140809499999996,-89.7982389,Approximate,,,Drive-Thru Window,Wi-Fi
1000958535,51,Locations: Chain Restaurants,McDonald's,5959 Triangle Town Blvd,RALEIGH,NC,27616-3270,Location,United States of America,9197922566.0,1000017996,McDonald's Corporation,OAK BROOK,IL,60523-5500,,,,,,,48380.0,37183.0,WAKE,39580.0,"Raleigh, NC",6640.0,"RALEIGH-DURHAM-CHAPEL HILL, NC",,,35.8665178,-78.5756725,Approximate,,,Drive-Thru Window,Wi-Fi
1000958538,51,Locations: Chain Restaurants,McDonald's,596 Bobby Jones Expy,AUGUSTA,GA,30907-5300,Location,United States of America,7068603244.0,1000017996,McDonald's Corporation,OAK BROOK,IL,60523-5500,,,,,,,48880.0,13073.0,COLUMBIA,12260.0,"Augusta-Richmond County, GA-SC",600.0,"AUGUSTA-AIKEN, GA-SC",,,33.504881,-82.086097,Approximate,,,Drive-Thru Window,Wi-Fi
1000958630,51,Locations: Chain Restaurants,McDonald's,6th St & Independence Ave SW,WASHINGTON,DC,20560,Location,United States of America,2026820942.0,1000017996,McDonald's Corporation,OAK BROOK,IL,60523-5500,,,,,,,58190.0,11001.0,DISTRICT OF COLUMBIA,47900.0,"Washington-Arlington-Alexandria, DC-VA-MD-WV",8872.0,"WASHINGTON-BALTIMORE, DC-MD-VA-WV",8840.0,"WASHINGTON, DC-MD-VA-WV",38.888168799999995,-77.01833590000001,Approximate,,,Drive-Thru Window,Wi-Fi
1000956624,51,Locations: Chain Restaurants,McDonald's,5201 Broadway,BRONX,NY,10463-7636,Location,United States of America,7183655070.0,1000017996,McDonald's Corporation,OAK BROOK,IL,60523-5500,,,,,,,61380.0,36005.0,BRONX,35620.0,"New York-Newark-Jersey City, NY-NJ-PA",5602.0,"NEW YORK-NORTHERN NEW JERSEY-LONG ISLAND, NY-NJ-CT-PA",5600.0,"NEW YORK, NY",40.874682,-73.909945,Approximate,,,Drive-Thru Window,Wi-Fi
1000956694,51,Locations: Chain Restaurants,McDonald's,5222 W Shaw Ave,FRESNO,CA,93722-5030,Location,United States of America,5592767722.0,1000017996,McDonald's Corporation,OAK BROOK,IL,60523-5500,,,,,,,51140.0,6019.0,FRESNO,23420.0,"Fresno, CA",2840.0,"FRESNO, CA",,,36.8085388,-119.8841854,Approximate,,,Drive-Thru Window,Wi-Fi
1000957388,51,Locations: Chain Restaurants,McDonald's,5498 Oxford Ave,PHILADELPHIA,PA,19124-1126,Location,United States of America,2155332095.0,1000017996,McDonald's Corporation,OAK BROOK,IL,60523-5500,,,,,,,57080.0,42101.0,PHILADELPHIA,37980.0,"Philadelphia-Camden-Wilmington, PA-NJ-DE-MD",6162.0,"PHILADELPHIA-WILMINGTON-ATLANTIC CITY, PA-NJ-DE-MD",6160.0,"PHILADELPHIA, PA-NJ",40.0307686,-75.0854185,Approximate,,,Drive-Thru Window,Wi-Fi
1000957872,51,Locations: Chain Restaurants,McDonald's,5650 S Chambers Rd,AURORA,CO,80015-1132,Location,United States of America,3036991965.0,1000017996,McDonald's Corporation,OAK BROOK,IL,60523-5500,,,,,,,51290.0,8005.0,ARAPAHOE,19740.0,"Denver-Aurora-Lakewood, CO",2082.0,"DENVER-BOULDER-GREELEY, CO",2080.0,"DENVER, CO",39.613871,-104.811373,Approximate,,,Drive-Thru Window,Wi-Fi
1000958061,51,Locations: Chain Restaurants,McDonald's,5730 W Amarillo Blvd,AMARILLO,TX,79106-4004,Location,United States of America,8063548291.0,1000017996,McDonald's Corporation,OAK BROOK,IL,60523-5500,,,,,,,47830.0,48375.0,POTTER,11100.0,"Amarillo, TX",320.0,"AMARILLO, TX",,,35.21229879999999,-101.9078171,Approximate,,,Drive-Thru Window,Wi-Fi
1000958576,51,Locations: Chain Restaurants,McDonald's,558 SE 10th Ave,HILLSBORO,OR,97123-4625,Location,United States of America,5036483622.0,1000017996,McDonald's Corporation,OAK BROOK,IL,60523-5500,,,,,,,49080.0,41067.0,WASHINGTON,38900.0,"Portland-Vancouver-Hillsboro, OR-WA",6442.0,"PORTLAND-SALEM, OR-WA",6440.0,"PORTLAND-VANCOUVER, OR-WA",45.5164301,-122.9733966,Approximate,,,Drive-Thru Window,Wi-Fi
1000958720,51,Locations: Chain Restaurants,McDonald's,601 E North Ave,STOCKTON,IL,61085-1211,Location,United States of America,8159472151.0,1000017996,McDonald's Corporation,OAK BROOK,IL,60523-5500,,,,,,,45920.0,17085.0,JO DAVIESS,,,,,,,42.35768970000001,-89.9993858,Approximate,,,Drive-Thru Window,Wi-Fi
1000960387,51,Locations: Chain Restaurants,McDonald's,6597 Collins Dr,MOORPARK,CA,93021-1487,Location,United States of America,8055311150.0,1000017996,McDonald's Corporation,OAK BROOK,IL,60523-5500,,,,,,,50530.0,6111.0,VENTURA,37100.0,"Oxnard-Thousand Oaks-Ventura, CA",4472.0,"LOS ANGELES-RIVERSIDE-ORANGE COUNTY, CA",8735.0,"VENTURA, CA",34.295701,-118.84349399999999,Approximate,,,Drive-Thru Window,Wi-Fi
1000961312,51,Locations: Chain Restaurants,McDonald's,7001 Concourse Pkwy,DOUGLASVILLE,GA,30134-4549,Location,United States of America,7705778189.0,1000017996,McDonald's Corporation,OAK BROOK,IL,60523-5500,,,,,,,46670.0,13097.0,DOUGLAS,12060.0,"Atlanta-Sandy Springs-Roswell, GA",520.0,"ATLANTA, GA",,,33.7325398,-84.75646379999999,Approximate,,,Drive-Thru Window,Wi-Fi
1000961456,51,Locations: Chain Restaurants,McDonald's,702 Washington St,BOSTON,MA,2108,Location,United States of America,6173388033.0,1000017996,McDonald's Corporation,OAK BROOK,IL,60523-5500,,,,,,,56950.0,25025.0,SUFFOLK,14460.0,"Boston-Cambridge-Newton, MA-NH",1122.0,"BOSTON-WORCESTER-LAWRENCE, MA-NH-ME-CT",1120.0,"BOSTON, MA-NH",42.356899,-71.058975,Approximate,,,Drive-Thru Window,Wi-Fi
1000959732,51,Locations: Chain Restaurants,McDonald's,6301 NW Quannah Parker Trl,LAWTON,OK,73505-1326,Location,United States of America,5805103021.0,1000017996,McDonald's Corporation,OAK BROOK,IL,60523-5500,,,,,,,47620.0,40031.0,COMANCHE,30020.0,"Lawton, OK",4200.0,"LAWTON, OK",,,34.632315999999996,-98.4713818,Rooftop,,,Drive-Thru Window,Wi-Fi
1000961800,51,Locations: Chain Restaurants,McDonald's,714 N Main St,ROBERSONVILLE,NC,27871-9556,Location,United States of America,2527955800.0,1000017996,McDonald's Corporation,OAK BROOK,IL,60523-5500,,,,,,,45670.0,37117.0,MARTIN,,,,,,,35.8332734,-77.2531128,Approximate,,,Drive-Thru Window,Wi-Fi
